[
  {
    "city_id": 26,
    "is_open": 1,
    "id": 1010,
    "slug": "ot-xirdalan-arazmarket4",
    "is_nfc": 0,
    "cash_in": 0,
    "type": "A",
    "working_weekends": 0,
    "is_digital": 0,
    "lat": "40.45662",
    "lng": "49.74158",
    "work_hours_week": "",
    "work_hours_saturday": "",
    "work_hours_sunday": "",
    "address": "Abşeron r., Xırdalan ş. M. Hüseynzadə küç,1-ci mərtəbə",
    "name": "ARAZ MARKET Xırdalan 4",
    "working_days": [],
    "special_days": []
  },
  {
    "city_id": 1,
    "is_open": 1,
    "id": 1011,
    "slug": "ot-bine-arazmarket1",
    "is_nfc": 0,
    "cash_in": 0,
    "type": "A",
    "working_weekends": 0,
    "is_digital": 0,
    "lat": "40.45036",
    "lng": "50.08906",
    "work_hours_week": "",
    "work_hours_saturday": "",
    "work_hours_sunday": "",
    "address": "Bakı ş.,Əzizbəyov rayonu Binə qəsəbəsi Ə.İsazadə kucəsi 5",
    "name": "ARAZ MARKET BİNƏ 1",
    "working_days": [],
    "special_days": []
  },
  {
    "city_id": 1,
    "is_open": 1,
    "id": 1012,
    "slug": "ot-bineqedi-arazmarket-bileceri",
    "is_nfc": 0,
    "cash_in": 0,
    "type": "A",
    "working_weekends": 0,
    "is_digital": 0,
    "lat": "40.43625",
    "lng": "49.80342",
    "work_hours_week": "",
    "work_hours_saturday": "",
    "work_hours_sunday": "",
    "address": "Bakı şəhəri Binəqədi r. Biləcəri qəs, Mehdi Hüseynzadə 17",
    "name": "ARAZ MARKET BİLƏCƏRİ",
    "working_days": [],
    "special_days": []
  },
  {
    "city_id": 1,
    "is_open": 1,
    "id": 1013,
    "slug": "ot-mashtaga-arazmarket-savalan",
    "is_nfc": 0,
    "cash_in": 0,
    "type": "A",
    "working_weekends": 0,
    "is_digital": 0,
    "lat": "40.50661",
    "lng": "49.97543",
    "work_hours_week": "",
    "work_hours_saturday": "",
    "work_hours_sunday": "",
    "address": "Bakı ş.,Sabuncu r. Maştağa qəs., Zabrat -Maştağa şössesi",
    "name": "ARAZ MARKET (SAVALAN)",
    "working_days": [],
    "special_days": []
  },
  {
    "city_id": 1,
    "is_open": 1,
    "id": 1014,
    "slug": "ot-xezer-arazmarket-buzovna",
    "is_nfc": 0,
    "cash_in": 0,
    "type": "A",
    "working_weekends": 0,
    "is_digital": 0,
    "lat": "40.40128",
    "lng": "49.83154",
    "work_hours_week": "",
    "work_hours_saturday": "",
    "work_hours_sunday": "",
    "address": "Xəzər rayonu buzovna qəsəbəsi Heydər Eyvazov kucəsi 47",
    "name": "Araz Market (BUZOVNA)",
    "working_days": [],
    "special_days": []
  },
  {
    "city_id": 1,
    "is_open": 1,
    "id": 1015,
    "slug": "ot-yasamal-arazmarket-bdu",
    "is_nfc": 0,
    "cash_in": 0,
    "type": "A",
    "working_weekends": 0,
    "is_digital": 0,
    "lat": "40.37455",
    "lng": "49.81163",
    "work_hours_week": "",
    "work_hours_saturday": "",
    "work_hours_sunday": "",
    "address": "Bakı şəhəri, Yasamal Rayonu, Firuddin Ağayev küçəsi 9 ünvani",
    "name": "ARAZ MARKET (BDU)",
    "working_days": [],
    "special_days": []
  },
  {
    "city_id": 2,
    "is_open": 1,
    "id": 1016,
    "slug": "ot-saray-arazmarket",
    "is_nfc": 0,
    "cash_in": 0,
    "type": "A",
    "working_weekends": 0,
    "is_digital": 0,
    "lat": "40.52429",
    "lng": "49.68744",
    "work_hours_week": "",
    "work_hours_saturday": "",
    "work_hours_sunday": "",
    "address": "Abşeron rayonu, Saray qəsəbəsi",
    "name": "ARAZ MARKET (SARAY)",
    "working_days": [],
    "special_days": []
  },
  {
    "city_id": 2,
    "is_open": 1,
    "id": 1017,
    "slug": "ot-absheron-arazmarket-ceyranbatan",
    "is_nfc": 0,
    "cash_in": 0,
    "type": "A",
    "working_weekends": 0,
    "is_digital": 0,
    "lat": "40.54368",
    "lng": "49.66297",
    "work_hours_week": "",
    "work_hours_saturday": "",
    "work_hours_sunday": "",
    "address": "Abşeron rayonu, Ceyranbatan qəsəbəsi, Bakı-Sumqayıt şossesi",
    "name": "ARAZ MARKET (CEYRANBATAN)",
    "working_days": [],
    "special_days": []
  },
  {
    "city_id": 1,
    "is_open": 1,
    "id": 1018,
    "slug": "ot-hovsan-arazmarket",
    "is_nfc": 0,
    "cash_in": 0,
    "type": "A",
    "working_weekends": 0,
    "is_digital": 0,
    "lat": "40.36069",
    "lng": "50.08003",
    "work_hours_week": "",
    "work_hours_saturday": "",
    "work_hours_sunday": "",
    "address": "Bakı şəhəri, Suraxanı rayonu,Hövsan qəsəbəsi,İ.Əhlimanov küçəsi 225",
    "name": "ARAZ MARKET (HÖVSAN)",
    "working_days": [],
    "special_days": []
  },
  {
    "city_id": 45,
    "is_open": 1,
    "id": 1019,
    "slug": "ot-danyeri-avm",
    "is_nfc": 0,
    "cash_in": 0,
    "type": "A",
    "working_weekends": 0,
    "is_digital": 0,
    "lat": "39.21264",
    "lng": "45.42209",
    "work_hours_week": "",
    "work_hours_saturday": "",
    "work_hours_sunday": "",
    "address": "Naxçıvan şəhəri Ə.Əliyev kç. 46",
    "name": "DANYERİ AVM",
    "working_days": [],
    "special_days": []
  },
  {
    "city_id": 21,
    "is_open": 1,
    "id": 1021,
    "slug": "ot-xan-market-goranboy-tapqaraqoyunlu-kendi",
    "is_nfc": 0,
    "cash_in": 0,
    "type": "A",
    "working_weekends": 0,
    "is_digital": 0,
    "lat": "40.43153",
    "lng": "46.76967",
    "work_hours_week": "",
    "work_hours_saturday": "",
    "work_hours_sunday": "",
    "address": "Goranboy ray, Tapqaraqoyunlu kəndi",
    "name": "Xan Market Goranboy",
    "working_days": [],
    "special_days": []
  },
  {
    "city_id": 1,
    "is_open": 1,
    "id": 1022,
    "slug": "ot-favorit-market-buzovna",
    "is_nfc": 0,
    "cash_in": 0,
    "type": "A",
    "working_weekends": 0,
    "is_digital": 0,
    "lat": "40.52716",
    "lng": "50.09811",
    "work_hours_week": "",
    "work_hours_saturday": "",
    "work_hours_sunday": "",
    "address": "Bakı. Xəzər rayonu, Buzovna ŞTQ. Rasim İmanov küç 22a",
    "name": "Favorit market",
    "working_days": [],
    "special_days": []
  },
  {
    "city_id": 55,
    "is_open": 1,
    "id": 1023,
    "slug": "ot-araz-market-sumqayit",
    "is_nfc": 0,
    "cash_in": 0,
    "type": "A",
    "working_weekends": 0,
    "is_digital": 0,
    "lat": "40.57021",
    "lng": "49.68913",
    "work_hours_week": "",
    "work_hours_saturday": "",
    "work_hours_sunday": "",
    "address": "Sumqayit şəhəri, 9 mkr, Üzeyir Hacibəyov küçəsi 25C",
    "name": "Araz Market Sumqayit",
    "working_days": [],
    "special_days": []
  },
  {
    "city_id": 2,
    "is_open": 1,
    "id": 1024,
    "slug": "ot-araz-market-masazir-2",
    "is_nfc": 0,
    "cash_in": 0,
    "type": "A",
    "working_weekends": 0,
    "is_digital": 0,
    "lat": "40.47901",
    "lng": "49.75255",
    "work_hours_week": "",
    "work_hours_saturday": "",
    "work_hours_sunday": "",
    "address": "Abşeron r., Masazır ş., Əliağa Vahid kücəsi",
    "name": "Araz Market Masazir 2",
    "working_days": [],
    "special_days": []
  },
  {
    "city_id": 1,
    "is_open": 1,
    "id": 1025,
    "slug": "araz-market-olimpik",
    "is_nfc": 0,
    "cash_in": 0,
    "type": "A",
    "working_weekends": 0,
    "is_digital": 0,
    "lat": "40.40128",
    "lng": "49.83154",
    "work_hours_week": "",
    "work_hours_saturday": "",
    "work_hours_sunday": "",
    "address": "Nəsimi rayonu Mərdanov qardaşlari 137",
    "name": "Araz market Olimpik",
    "working_days": [],
    "special_days": []
  },
  {
    "city_id": 1,
    "is_open": 1,
    "id": 1026,
    "slug": "ot-araz-market-sahil",
    "is_nfc": 0,
    "cash_in": 0,
    "type": "A",
    "working_weekends": 0,
    "is_digital": 0,
    "lat": "40.22518",
    "lng": "49.57233",
    "work_hours_week": "",
    "work_hours_saturday": "",
    "work_hours_sunday": "",
    "address": "Bakı ş., Qaradağ r., Sahil qəs., Məhərrəm Seyidov küç15",
    "name": "Araz Market Sahil",
    "working_days": [],
    "special_days": []
  },
  {
    "city_id": 1,
    "is_open": 1,
    "id": 1028,
    "slug": "ot-araz-market-sabuncu",
    "is_nfc": 0,
    "cash_in": 0,
    "type": "A",
    "working_weekends": 0,
    "is_digital": 0,
    "lat": "40.44604",
    "lng": "49.91651",
    "work_hours_week": "",
    "work_hours_saturday": "",
    "work_hours_sunday": "",
    "address": "Sabunçu qəs., Ə.Məmmədəliyev küç. 18A (Sabunçu xəstəxanasının yaxınlığı)",
    "name": "Araz Market Sabuncu",
    "working_days": [],
    "special_days": []
  },
  {
    "city_id": 29,
    "is_open": 1,
    "id": 1029,
    "slug": "ot-araz-market-imishli",
    "is_nfc": 0,
    "cash_in": 0,
    "type": "A",
    "working_weekends": 0,
    "is_digital": 0,
    "lat": "39.86757",
    "lng": "48.06013",
    "work_hours_week": "",
    "work_hours_saturday": "",
    "work_hours_sunday": "",
    "address": "İmişli r. Qabil İsmayılzadə küç.",
    "name": "İmişli Araz Market",
    "working_days": [],
    "special_days": []
  },
  {
    "city_id": 12,
    "is_open": 1,
    "id": 1030,
    "slug": "ot-araz-market-berde",
    "is_nfc": 0,
    "cash_in": 0,
    "type": "A",
    "working_weekends": 0,
    "is_digital": 0,
    "lat": "40.39921",
    "lng": "47.12290",
    "work_hours_week": "",
    "work_hours_saturday": "",
    "work_hours_sunday": "",
    "address": "Bərde ş., Heyder Eliyev pr.",
    "name": "Araz Market Bərdə",
    "working_days": [],
    "special_days": []
  },
  {
    "city_id": 1,
    "is_open": 1,
    "id": 1031,
    "slug": "ot-araz-nerimanov-2",
    "is_nfc": 0,
    "cash_in": 0,
    "type": "A",
    "working_weekends": 0,
    "is_digital": 0,
    "lat": "40.39679",
    "lng": "47.87904",
    "work_hours_week": "",
    "work_hours_saturday": "",
    "work_hours_sunday": "",
    "address": "Nərimanov rayonu,Ağa nemətulla, ev 70a",
    "name": "Araz Nerimanov 2",
    "working_days": [],
    "special_days": []
  },
  {
    "city_id": 25,
    "is_open": 1,
    "id": 1032,
    "slug": "ot-zaur-market",
    "is_nfc": 0,
    "cash_in": 0,
    "type": "A",
    "working_weekends": 0,
    "is_digital": 0,
    "lat": "41.76446",
    "lng": "48.67856",
    "work_hours_week": "",
    "work_hours_saturday": "",
    "work_hours_sunday": "",
    "address": "Xaçmaz rayonu, Nabran qəsəbəsi",
    "name": "Zaur market",
    "working_days": [],
    "special_days": []
  },
  {
    "city_id": 1,
    "is_open": 1,
    "id": 1033,
    "slug": "ot-araz-market-sherifzade",
    "is_nfc": 0,
    "cash_in": 0,
    "type": "A",
    "working_weekends": 0,
    "is_digital": 0,
    "lat": "40.38211",
    "lng": "49.80426",
    "work_hours_week": "",
    "work_hours_saturday": "",
    "work_hours_sunday": "",
    "address": "Bakı şəhəri, Şərfizadə küçəsi ünvanı",
    "name": "Araz market Şərifzadə",
    "working_days": [],
    "special_days": []
  },
  {
    "city_id": 1,
    "is_open": 1,
    "id": 1034,
    "slug": "ot-mida",
    "is_nfc": 0,
    "cash_in": 0,
    "type": "A",
    "working_weekends": 0,
    "is_digital": 0,
    "lat": "40.38189",
    "lng": "50.06812",
    "work_hours_week": "",
    "work_hours_saturday": "",
    "work_hours_sunday": "",
    "address": "Hovsan yasayis kompleksi",
    "name": "MİDA",
    "working_days": [],
    "special_days": []
  },
  {
    "city_id": 1,
    "is_open": 1,
    "id": 1035,
    "slug": "ot-oba-market",
    "is_nfc": 0,
    "cash_in": 0,
    "type": "A",
    "working_weekends": 0,
    "is_digital": 0,
    "lat": "40.05325",
    "lng": "47.45539",
    "work_hours_week": "",
    "work_hours_saturday": "",
    "work_hours_sunday": "",
    "address": "Ağcabədi rayonu, Qarabağ küçəsi 55",
    "name": "Oba market",
    "working_days": [],
    "special_days": []
  },
  {
    "city_id": 1,
    "is_open": 1,
    "id": 1037,
    "slug": "ot-sulumart-market",
    "is_nfc": 0,
    "cash_in": 0,
    "type": "A",
    "working_weekends": 0,
    "is_digital": 0,
    "lat": "40.43012",
    "lng": "49.77281",
    "work_hours_week": "",
    "work_hours_saturday": "",
    "work_hours_sunday": "",
    "address": "Binəqədi rayonu, Sulutəpə qəsəbəsi",
    "name": "Sulumart market",
    "working_days": [],
    "special_days": []
  },
  {
    "city_id": 1,
    "is_open": 1,
    "id": 1038,
    "slug": "ot-zeytun-market",
    "is_nfc": 0,
    "cash_in": 0,
    "type": "A",
    "working_weekends": 0,
    "is_digital": 0,
    "lat": "40.38606",
    "lng": "49.84808",
    "work_hours_week": "",
    "work_hours_saturday": "",
    "work_hours_sunday": "",
    "address": "Bakı ş., Nəsimi r., Ceyhun Hacıbəyli 37A",
    "name": "Zeytun Market",
    "working_days": [],
    "special_days": []
  },
  {
    "city_id": 1,
    "is_open": 1,
    "id": 1039,
    "slug": "ot-azercell-plaza",
    "is_nfc": 0,
    "cash_in": 0,
    "type": "A",
    "working_weekends": 0,
    "is_digital": 0,
    "lat": "40.40007",
    "lng": "49.80954",
    "work_hours_week": "",
    "work_hours_saturday": "",
    "work_hours_sunday": "",
    "address": "Bakı ş., Yasamal r., Tbilisi pr. 149",
    "name": "Azercell Plaza",
    "working_days": [],
    "special_days": []
  },
  {
    "city_id": 1,
    "is_open": 1,
    "id": 1040,
    "slug": "ot-favorit-xezer-market",
    "is_nfc": 0,
    "cash_in": 0,
    "type": "A",
    "working_weekends": 0,
    "is_digital": 0,
    "lat": "40.38110",
    "lng": "49.96518",
    "work_hours_week": "",
    "work_hours_saturday": "",
    "work_hours_sunday": "",
    "address": "Bakı şəhəri Gəncə prospekti 2942 saylı məhəllə korpus 3",
    "name": "Favorit Xəzər",
    "working_days": [],
    "special_days": []
  },
  {
    "city_id": 1,
    "is_open": 1,
    "id": 1041,
    "slug": "ot-bolmart-market-9-mkr",
    "is_nfc": 0,
    "cash_in": 0,
    "type": "A",
    "working_weekends": 0,
    "is_digital": 0,
    "lat": "40.42128",
    "lng": "49.81493",
    "work_hours_week": "",
    "work_hours_saturday": "",
    "work_hours_sunday": "",
    "address": "Bakı ş. Binəqədi r. M.Cəlal küç 314",
    "name": "Bolmart Super market  9-cu mkr.",
    "working_days": [],
    "special_days": []
  },
  {
    "city_id": 1,
    "is_open": 1,
    "id": 1042,
    "slug": "ot-favorit-market-neapol",
    "is_nfc": 0,
    "cash_in": 0,
    "type": "A",
    "working_weekends": 0,
    "is_digital": 0,
    "lat": "40.38365",
    "lng": "49.96660",
    "work_hours_week": "",
    "work_hours_saturday": "",
    "work_hours_sunday": "",
    "address": "Bakı şəhəri General Şıxlınski küçəsi 55",
    "name": "Favorit Neapol",
    "working_days": [],
    "special_days": []
  },
  {
    "city_id": 1,
    "is_open": 1,
    "id": 1043,
    "slug": "ot-araz-market-nerimanov3",
    "is_nfc": 0,
    "cash_in": 0,
    "type": "A",
    "working_weekends": 0,
    "is_digital": 0,
    "lat": "40.40210",
    "lng": "49.87407",
    "work_hours_week": "",
    "work_hours_saturday": "",
    "work_hours_sunday": "",
    "address": "Bakı şəhəri, Nərimanov Rayonu, Nazim Hacıyev küçəsi ilə Faiq Yusifov küçələrinin kəsişməsi, 1950 ci məhəllə",
    "name": "Araz Nerimanov-3",
    "working_days": [],
    "special_days": []
  },
  {
    "city_id": 55,
    "is_open": 1,
    "id": 1044,
    "slug": "ot-qayali-market",
    "is_nfc": 0,
    "cash_in": 0,
    "type": "A",
    "working_weekends": 0,
    "is_digital": 0,
    "lat": "40.61906",
    "lng": "49.56253",
    "work_hours_week": "",
    "work_hours_saturday": "",
    "work_hours_sunday": "",
    "address": "Sumqayıt ş, H.Z.Tağıyev qəs.",
    "name": "Sumqayıt Qayalı Market",
    "working_days": [],
    "special_days": []
  },
  {
    "city_id": 55,
    "is_open": 1,
    "id": 1045,
    "slug": "ot-qayali-market-sumqayit",
    "is_nfc": 0,
    "cash_in": 0,
    "type": "A",
    "working_weekends": 0,
    "is_digital": 0,
    "lat": "40.56999",
    "lng": "49.67535",
    "work_hours_week": "",
    "work_hours_saturday": "",
    "work_hours_sunday": "",
    "address": "Sumqayıt ş., 11mkr.Ş.Bədəlbəyli küç.",
    "name": "SUMQAYIT QAYALI MARKET-2",
    "working_days": [],
    "special_days": []
  },
  {
    "city_id": 1,
    "is_open": 1,
    "id": 1046,
    "slug": "araz-market-6mkr-2express",
    "is_nfc": 0,
    "cash_in": 0,
    "type": "A",
    "working_weekends": 0,
    "is_digital": 0,
    "lat": "40.42574",
    "lng": "49.82926",
    "work_hours_week": "",
    "work_hours_saturday": "",
    "work_hours_sunday": "",
    "address": "Bakı şəhəri,Binəqədi rayonu,Svetlana Məmmədova küçəsi 209F",
    "name": "Araz 6 mkr, 2 express",
    "working_days": [],
    "special_days": []
  },
  {
    "city_id": 1,
    "is_open": 1,
    "id": 1047,
    "slug": "ot-araz-market-xirdalan-aaf",
    "is_nfc": 0,
    "cash_in": 0,
    "type": "A",
    "working_weekends": 0,
    "is_digital": 0,
    "lat": "40.45726",
    "lng": "49.72300",
    "work_hours_week": "",
    "work_hours_saturday": "",
    "work_hours_sunday": "",
    "address": "Xırdalan şəh., AAAF Park yaşayış kompleksi",
    "name": "Araz Xirdalan-3",
    "working_days": [],
    "special_days": []
  },
  {
    "city_id": 60,
    "is_open": 1,
    "id": 1048,
    "slug": "ot-shemkir-zumrud-market-deller",
    "is_nfc": 0,
    "cash_in": 0,
    "type": "A",
    "working_weekends": 0,
    "is_digital": 0,
    "lat": "40.87790",
    "lng": "46.02825",
    "work_hours_week": "",
    "work_hours_saturday": "",
    "work_hours_sunday": "",
    "address": "Şəmkir r. Dəlilər kəndi",
    "name": "Şəmkir Zümrüd Market 2",
    "working_days": [],
    "special_days": []
  },
  {
    "city_id": 1,
    "is_open": 1,
    "id": 1049,
    "slug": "ot-araz-market-neftciler",
    "is_nfc": 0,
    "cash_in": 0,
    "type": "A",
    "working_weekends": 0,
    "is_digital": 0,
    "lat": "40.41339",
    "lng": "49.94951",
    "work_hours_week": "",
    "work_hours_saturday": "",
    "work_hours_sunday": "",
    "address": "Nizami rayonu Şərifli kucəsi 25",
    "name": "Araz Neftçiler",
    "working_days": [],
    "special_days": []
  },
  {
    "city_id": 1,
    "is_open": 1,
    "id": 1050,
    "slug": "ot-araz-market-capayev",
    "is_nfc": 0,
    "cash_in": 0,
    "type": "A",
    "working_weekends": 0,
    "is_digital": 0,
    "lat": "40.38894",
    "lng": "49.85726",
    "work_hours_week": "",
    "work_hours_saturday": "",
    "work_hours_sunday": "",
    "address": "Bakı ş., Nərimanov r-nu, Qarabağ küçəsi    ",
    "name": "Araz Təbriz capayev",
    "working_days": [],
    "special_days": []
  },
  {
    "city_id": 1,
    "is_open": 1,
    "id": 1051,
    "slug": "ot-araz-market-guneshli",
    "is_nfc": 0,
    "cash_in": 0,
    "type": "A",
    "working_weekends": 0,
    "is_digital": 0,
    "lat": "40.36900",
    "lng": "49.97575",
    "work_hours_week": "",
    "work_hours_saturday": "",
    "work_hours_sunday": "",
    "address": "Bakı ş., Suraxanı r-nu, Yeni Günəşli qəs., AB yaşayış sahəsi 127                                                    ",
    "name": "Araz Gunəşli-5",
    "working_days": [],
    "special_days": []
  },
  {
    "city_id": 1,
    "is_open": 1,
    "id": 1053,
    "slug": "ot-araz-market-8km",
    "is_nfc": 0,
    "cash_in": 0,
    "type": "A",
    "working_weekends": 0,
    "is_digital": 0,
    "lat": "40.40212",
    "lng": "49.95533",
    "work_hours_week": "",
    "work_hours_saturday": "",
    "work_hours_sunday": "",
    "address": "Bakı şəhəri Nizami rayonu Bəhruz Nuriyev ev. 32, 2-ci blok 1 ci Mərtəbə",
    "name": "Araz 8-km",
    "working_days": [],
    "special_days": []
  },
  {
    "city_id": 55,
    "is_open": 1,
    "id": 1055,
    "slug": "ot-market-tagiyev-qes",
    "is_nfc": 0,
    "cash_in": 0,
    "type": "A",
    "working_weekends": 0,
    "is_digital": 0,
    "lat": "40.62240",
    "lng": "49.55488",
    "work_hours_week": "",
    "work_hours_saturday": "",
    "work_hours_sunday": "",
    "address": "Sumqayıt ş. H.Z.Tağıyev qəs.  F.Qeyibov küç. 14",
    "name": "Market, Tağıyev qəsəbəsi",
    "working_days": [],
    "special_days": []
  },
  {
    "city_id": 1,
    "is_open": 1,
    "id": 1056,
    "slug": "ot-nursel-market",
    "is_nfc": 0,
    "cash_in": 0,
    "type": "A",
    "working_weekends": 0,
    "is_digital": 0,
    "lat": "40.41622",
    "lng": "49.84114",
    "work_hours_week": "",
    "work_hours_saturday": "",
    "work_hours_sunday": "",
    "address": " Binəqədi r. Ə.Naxçıvani küç 18/A",
    "name": "Nursel market",
    "working_days": [],
    "special_days": []
  },
  {
    "city_id": 1,
    "is_open": 1,
    "id": 1057,
    "slug": "ot-tayga-market-dernegul",
    "is_nfc": 0,
    "cash_in": 0,
    "type": "A",
    "working_weekends": 0,
    "is_digital": 0,
    "lat": "40.41603",
    "lng": "49.84957",
    "work_hours_week": "",
    "work_hours_saturday": "",
    "work_hours_sunday": "",
    "address": "Binəqədi r. Dərnəgül qəs. ev 19 aşırım",
    "name": "Tayga market",
    "working_days": [],
    "special_days": []
  },
  {
    "city_id": 1,
    "is_open": 1,
    "id": 1058,
    "slug": "ot-tayga-market-binegedi",
    "is_nfc": 0,
    "cash_in": 0,
    "type": "A",
    "working_weekends": 0,
    "is_digital": 0,
    "lat": "40.43179",
    "lng": "49.85184",
    "work_hours_week": "",
    "work_hours_saturday": "",
    "work_hours_sunday": "",
    "address": "Binəqədi r. Binəqədi şossesi 308 c",
    "name": "Tayga market",
    "working_days": [],
    "special_days": []
  },
  {
    "city_id": 1,
    "is_open": 1,
    "id": 1059,
    "slug": "ot-stimul-market",
    "is_nfc": 0,
    "cash_in": 0,
    "type": "A",
    "working_weekends": 0,
    "is_digital": 0,
    "lat": "40.43384",
    "lng": "49.95631",
    "work_hours_week": "",
    "work_hours_saturday": "",
    "work_hours_sunday": "",
    "address": "Sabunçu r. Bakıxanov q. Yavər Əliyev küç. 26",
    "name": "Stimul Hospital",
    "working_days": [],
    "special_days": []
  },
  {
    "city_id": 1,
    "is_open": 1,
    "id": 1060,
    "slug": "ot-mini-market",
    "is_nfc": 0,
    "cash_in": 0,
    "type": "A",
    "working_weekends": 0,
    "is_digital": 0,
    "lat": "40.36823",
    "lng": "49.96003",
    "work_hours_week": "",
    "work_hours_saturday": "",
    "work_hours_sunday": "",
    "address": "Bakı ş. Gəncə pr. 20 A",
    "name": "Mini market",
    "working_days": [],
    "special_days": []
  },
  {
    "city_id": 1,
    "is_open": 1,
    "id": 1061,
    "slug": "ot-myshops",
    "is_nfc": 0,
    "cash_in": 0,
    "type": "A",
    "working_weekends": 0,
    "is_digital": 0,
    "lat": "40.37850",
    "lng": "49.84793",
    "work_hours_week": "",
    "work_hours_saturday": "",
    "work_hours_sunday": "",
    "address": "Azadlıq pr.18",
    "name": "Myshops",
    "working_days": [],
    "special_days": []
  },
  {
    "city_id": 1,
    "is_open": 1,
    "id": 1062,
    "slug": "ot-meryem-plaza",
    "is_nfc": 0,
    "cash_in": 0,
    "type": "A",
    "working_weekends": 0,
    "is_digital": 0,
    "lat": "40.38597",
    "lng": "49.83333",
    "work_hours_week": "",
    "work_hours_saturday": "",
    "work_hours_sunday": "",
    "address": "Bakı şəhəri, Bəsti Bağırova 12",
    "name": "MERYEM PLAZA",
    "working_days": [],
    "special_days": []
  },
  {
    "city_id": 2,
    "is_open": 1,
    "id": 1063,
    "slug": "ot-bolmart-mehdiabad",
    "is_nfc": 0,
    "cash_in": 0,
    "type": "A",
    "working_weekends": 0,
    "is_digital": 0,
    "lat": "40.50096",
    "lng": "49.85618",
    "work_hours_week": "",
    "work_hours_saturday": "",
    "work_hours_sunday": "",
    "address": "Bakı ş. Abşeron r. Mehdiabat qəs.",
    "name": "Bolmart Mehdiabad",
    "working_days": [],
    "special_days": []
  },
  {
    "city_id": 1,
    "is_open": 1,
    "id": 1064,
    "slug": "ot-bolmart-semed-vurgun75",
    "is_nfc": 0,
    "cash_in": 0,
    "type": "A",
    "working_weekends": 0,
    "is_digital": 0,
    "lat": "40.38371",
    "lng": "49.83799",
    "work_hours_week": "",
    "work_hours_saturday": "",
    "work_hours_sunday": "",
    "address": "BAKI SH. NESIMI RAY. S.VURGUN KUCH.75",
    "name": "BOLMART S.VURGUN KUCH.",
    "working_days": [],
    "special_days": []
  },
  {
    "city_id": 1,
    "is_open": 1,
    "id": 1065,
    "slug": "ot-bolmart-market-salamzade",
    "is_nfc": 0,
    "cash_in": 0,
    "type": "A",
    "working_weekends": 0,
    "is_digital": 0,
    "lat": "40.39866",
    "lng": "49.81619",
    "work_hours_week": "",
    "work_hours_saturday": "",
    "work_hours_sunday": "",
    "address": "BAKI SH. YASAMAL RAY. A.SALAMZADE KUCH.1058",
    "name": "BOLMART Yasamal",
    "working_days": [],
    "special_days": []
  },
  {
    "city_id": 1,
    "is_open": 1,
    "id": 1066,
    "slug": "ot-bolmart-market-zabrat",
    "is_nfc": 0,
    "cash_in": 0,
    "type": "A",
    "working_weekends": 0,
    "is_digital": 0,
    "lat": "40.49166",
    "lng": "49.95307",
    "work_hours_week": "",
    "work_hours_saturday": "",
    "work_hours_sunday": "",
    "address": "Bakı ş, Zabrat qəs, Montin küç 21",
    "name": "Bolmart Zabrat",
    "working_days": [],
    "special_days": []
  },
  {
    "city_id": 1,
    "is_open": 1,
    "id": 1067,
    "slug": "ot-grandmart-zabrat",
    "is_nfc": 0,
    "cash_in": 0,
    "type": "A",
    "working_weekends": 0,
    "is_digital": 0,
    "lat": "40.49136",
    "lng": "49.95456",
    "work_hours_week": "",
    "work_hours_saturday": "",
    "work_hours_sunday": "",
    "address": "Bakı ş. Zabrat qəs. Zabrat dairəsi",
    "name": "GrandMart Zabrat",
    "working_days": [],
    "special_days": []
  },
  {
    "city_id": 1,
    "is_open": 1,
    "id": 1068,
    "slug": "ot-avromart-market",
    "is_nfc": 0,
    "cash_in": 0,
    "type": "A",
    "working_weekends": 0,
    "is_digital": 0,
    "lat": "40.37716",
    "lng": "49.85501",
    "work_hours_week": "",
    "work_hours_saturday": "",
    "work_hours_sunday": "",
    "address": "Bakı şəh. Nəsimi ray. Nizami küç. 129e",
    "name": "AvroMart",
    "working_days": [],
    "special_days": []
  },
  {
    "city_id": 1,
    "is_open": 1,
    "id": 1069,
    "slug": "ot-mashataga-market",
    "is_nfc": 0,
    "cash_in": 0,
    "type": "A",
    "working_weekends": 0,
    "is_digital": 0,
    "lat": "40.53251",
    "lng": "50.00469",
    "work_hours_week": "",
    "work_hours_saturday": "",
    "work_hours_sunday": "",
    "address": "Bakı şəhəri, Sabunçu rayonu Maştaga qəsəbəsi",
    "name": "MASTAGA 24 SAAT MARKET",
    "working_days": [],
    "special_days": []
  },
  {
    "city_id": 1,
    "is_open": 1,
    "id": 1070,
    "slug": "ot-grandmart-yasamal",
    "is_nfc": 0,
    "cash_in": 0,
    "type": "A",
    "working_weekends": 0,
    "is_digital": 0,
    "lat": "40.38358",
    "lng": "49.81011",
    "work_hours_week": "",
    "work_hours_saturday": "",
    "work_hours_sunday": "",
    "address": "Bakı şəh. Yasamal ray. 589-cu məhəllə H. Məcidov küç.",
    "name": "Grandmart market",
    "working_days": [],
    "special_days": []
  },
  {
    "city_id": 1,
    "is_open": 1,
    "id": 1071,
    "slug": "ot-grandmart-bakixanov",
    "is_nfc": 0,
    "cash_in": 0,
    "type": "A",
    "working_weekends": 0,
    "is_digital": 0,
    "lat": "40.42752",
    "lng": "49.93948",
    "work_hours_week": "",
    "work_hours_saturday": "",
    "work_hours_sunday": "",
    "address": "Sabunçu ray. B.Bünyadov küç. 134",
    "name": "Grandmart Bakıxanov",
    "working_days": [],
    "special_days": []
  },
  {
    "city_id": 55,
    "is_open": 1,
    "id": 1072,
    "slug": "ot-qayali-market-sumqayit-10mkr",
    "is_nfc": 0,
    "cash_in": 0,
    "type": "A",
    "working_weekends": 0,
    "is_digital": 0,
    "lat": "40.56854",
    "lng": "49.69181",
    "work_hours_week": "",
    "work_hours_saturday": "",
    "work_hours_sunday": "",
    "address": "Sumqayıt Şəh.10cu mk.Babək küç.",
    "name": "Qayali market Sumqayit",
    "working_days": [],
    "special_days": []
  },
  {
    "city_id": 55,
    "is_open": 1,
    "id": 1073,
    "slug": "ot-grandmart-sumqayit",
    "is_nfc": 0,
    "cash_in": 0,
    "type": "A",
    "working_weekends": 0,
    "is_digital": 0,
    "lat": "40.57922",
    "lng": "49.69366",
    "work_hours_week": "",
    "work_hours_saturday": "",
    "work_hours_sunday": "",
    "address": "SUMQAYIT S.VURGUN küç. 6 .6.mkr",
    "name": "Grandmart Sumqayıt",
    "working_days": [],
    "special_days": []
  },
  {
    "city_id": 1,
    "is_open": 1,
    "id": 1074,
    "slug": "ot-grandmart-market-asiman",
    "is_nfc": 0,
    "cash_in": 0,
    "type": "A",
    "working_weekends": 0,
    "is_digital": 0,
    "lat": "40.37585",
    "lng": "49.92769",
    "work_hours_week": "",
    "work_hours_saturday": "",
    "work_hours_sunday": "",
    "address": "Xətai rayonu ilqar abbasov küç 7a",
    "name": "Grandmart Asiman",
    "working_days": [],
    "special_days": []
  },
  {
    "city_id": 1,
    "is_open": 1,
    "id": 1075,
    "slug": "ot-bolmart-market-neftciler",
    "is_nfc": 0,
    "cash_in": 0,
    "type": "A",
    "working_weekends": 0,
    "is_digital": 0,
    "lat": "40.40836",
    "lng": "49.93870",
    "work_hours_week": "",
    "work_hours_saturday": "",
    "work_hours_sunday": "",
    "address": "Rüstəm Rüstəmov küç. 23",
    "name": "Bolmart Neftçilər",
    "working_days": [],
    "special_days": []
  },
  {
    "city_id": 1,
    "is_open": 1,
    "id": 1076,
    "slug": "ot-bolmart-market-qarayev",
    "is_nfc": 0,
    "cash_in": 0,
    "type": "A",
    "working_weekends": 0,
    "is_digital": 0,
    "lat": "40.41417",
    "lng": "49.93985",
    "work_hours_week": "",
    "work_hours_saturday": "",
    "work_hours_sunday": "",
    "address": "Q.QARAYEV PR.46 GRANDMART SUPERMARKET",
    "name": "Grandmart Supermarket",
    "working_days": [],
    "special_days": []
  },
  {
    "city_id": 1,
    "is_open": 1,
    "id": 1077,
    "slug": "ot-grandmarket-afcenter",
    "is_nfc": 0,
    "cash_in": 0,
    "type": "A",
    "working_weekends": 0,
    "is_digital": 0,
    "lat": "40.37631",
    "lng": "49.84188",
    "work_hours_week": "",
    "work_hours_saturday": "",
    "work_hours_sunday": "",
    "address": "Səməd Vurgun 34, Af centr. altı.Toys Shop yanı",
    "name": "Grand Mart Af centr S",
    "working_days": [],
    "special_days": []
  },
  {
    "city_id": 1,
    "is_open": 1,
    "id": 1078,
    "slug": "ot-bolmart-market-saray",
    "is_nfc": 0,
    "cash_in": 0,
    "type": "A",
    "working_weekends": 0,
    "is_digital": 0,
    "lat": "40.52210",
    "lng": "49.68911",
    "work_hours_week": "",
    "work_hours_saturday": "",
    "work_hours_sunday": "",
    "address": "Bakı - Sumqayıt yolu, Saray postu",
    "name": "Bolmart Saray",
    "working_days": [],
    "special_days": []
  },
  {
    "city_id": 47,
    "is_open": 1,
    "id": 1079,
    "slug": "ot-oguzmart",
    "is_nfc": 0,
    "cash_in": 0,
    "type": "A",
    "working_weekends": 0,
    "is_digital": 0,
    "lat": "41.07185",
    "lng": "47.46340",
    "work_hours_week": "",
    "work_hours_saturday": "",
    "work_hours_sunday": "",
    "address": "Oğuz şəhəri,Cavanşir küçəsi 44.",
    "name": "Oğuz Mart",
    "working_days": [],
    "special_days": []
  },
  {
    "city_id": 1,
    "is_open": 1,
    "id": 1080,
    "slug": "ot-shohret-market",
    "is_nfc": 0,
    "cash_in": 0,
    "type": "A",
    "working_weekends": 0,
    "is_digital": 0,
    "lat": "40.36957",
    "lng": "49.96363",
    "work_hours_week": "",
    "work_hours_saturday": "",
    "work_hours_sunday": "",
    "address": "Bakı ş, Xətayi rayonu general Şıxlinski 42A",
    "name": "Şöhrət market",
    "working_days": [],
    "special_days": []
  },
  {
    "city_id": 50,
    "is_open": 1,
    "id": 1081,
    "slug": "ot-ulacali-market",
    "is_nfc": 0,
    "cash_in": 0,
    "type": "A",
    "working_weekends": 0,
    "is_digital": 0,
    "lat": "40.07268",
    "lng": "48.59251",
    "work_hours_week": "",
    "work_hours_saturday": "",
    "work_hours_sunday": "",
    "address": "Sabirabad Ulacali kendi",
    "name": "Sabirabad Ulacali Market",
    "working_days": [],
    "special_days": []
  },
  {
    "city_id": 1,
    "is_open": 1,
    "id": 1082,
    "slug": "ot-araz-market-glassplaza",
    "is_nfc": 0,
    "cash_in": 0,
    "type": "A",
    "working_weekends": 0,
    "is_digital": 0,
    "lat": "40.36661",
    "lng": "49.81684",
    "work_hours_week": "",
    "work_hours_saturday": "",
    "work_hours_sunday": "",
    "address": "Bakı şəhəri Yasamal rayonu Hüseyn Cavid prospekti 17",
    "name": "Araz Market - GLASS PLAZA",
    "working_days": [],
    "special_days": []
  },
  {
    "city_id": 24,
    "is_open": 1,
    "id": 1083,
    "slug": "ot-haciqabul-talis-ticaret-merkezi",
    "is_nfc": 0,
    "cash_in": 0,
    "type": "A",
    "working_weekends": 0,
    "is_digital": 0,
    "lat": "40.03886",
    "lng": "48.92142",
    "work_hours_week": "",
    "work_hours_saturday": "",
    "work_hours_sunday": "",
    "address": "HACIQABUL rayon  Talış kəndi",
    "name": "Hacıqabul Talış T.M",
    "working_days": [],
    "special_days": []
  },
  {
    "city_id": 1,
    "is_open": 1,
    "id": 1084,
    "slug": "ot-araz-market-yasamal1",
    "is_nfc": 0,
    "cash_in": 0,
    "type": "A",
    "working_weekends": 0,
    "is_digital": 0,
    "lat": "40.38198",
    "lng": "49.80717",
    "work_hours_week": "",
    "work_hours_saturday": "",
    "work_hours_sunday": "",
    "address": "Baki seheri Yasamal rayonu Yeni Yasamal-1 kuc, 14",
    "name": "Araz Market Y. Yasamal-1",
    "working_days": [],
    "special_days": []
  },
  {
    "city_id": 33,
    "is_open": 1,
    "id": 1085,
    "slug": "ot-ekonom-market-qax",
    "is_nfc": 0,
    "cash_in": 0,
    "type": "A",
    "working_weekends": 0,
    "is_digital": 0,
    "lat": "41.4192877",
    "lng": "46.9171469",
    "work_hours_week": "",
    "work_hours_saturday": "",
    "work_hours_sunday": "",
    "address": "Qax şəhəri  H.Əliyev  pr.,4",
    "name": "Ekonom market",
    "working_days": [],
    "special_days": []
  },
  {
    "city_id": 59,
    "is_open": 1,
    "id": 1086,
    "slug": "ot-shekistore",
    "is_nfc": 0,
    "cash_in": 0,
    "type": "A",
    "working_weekends": 0,
    "is_digital": 0,
    "lat": "41.19804",
    "lng": "47.17607",
    "work_hours_week": "",
    "work_hours_saturday": "",
    "work_hours_sunday": "",
    "address": "Şəki şəhəri M.Ə.Rəsulzadə küç 166 B",
    "name": "Şəki Store market",
    "working_days": [],
    "special_days": []
  },
  {
    "city_id": 1,
    "is_open": 1,
    "id": 1087,
    "slug": "ot-araz-market-yasamal2",
    "is_nfc": 0,
    "cash_in": 0,
    "type": "A",
    "working_weekends": 0,
    "is_digital": 0,
    "lat": "40.38023",
    "lng": "49.80725",
    "work_hours_week": "",
    "work_hours_saturday": "",
    "work_hours_sunday": "",
    "address": "Baki seheri,Yasamal rayonu, M.Seyidov kuc 23",
    "name": "Araz market Yasamal-2",
    "working_days": [],
    "special_days": []
  },
  {
    "city_id": 50,
    "is_open": 1,
    "id": 1088,
    "slug": "ot-oba-market-sabirabad",
    "is_nfc": 0,
    "cash_in": 0,
    "type": "A",
    "working_weekends": 0,
    "is_digital": 0,
    "lat": "40.01952",
    "lng": "48.47804",
    "work_hours_week": "",
    "work_hours_saturday": "",
    "work_hours_sunday": "",
    "address": "Sabirabad rayonu, Nizami kəndi",
    "name": "Oba Market",
    "working_days": [],
    "special_days": []
  },
  {
    "city_id": 1,
    "is_open": 1,
    "id": 1089,
    "slug": "ot-araz-elmler",
    "is_nfc": 0,
    "cash_in": 0,
    "type": "A",
    "working_weekends": 0,
    "is_digital": 0,
    "lat": "40.37733",
    "lng": "49.81053",
    "work_hours_week": "",
    "work_hours_saturday": "",
    "work_hours_sunday": "",
    "address": "Yasamal rayon Şəhriyar kucəsi 6 nomrəli binanin 1 ci mərtəbəsi",
    "name": "Araz market Elmlər",
    "working_days": [],
    "special_days": []
  },
  {
    "city_id": 1,
    "is_open": 1,
    "id": 1090,
    "slug": "ot-araz-market-nizami1",
    "is_nfc": 0,
    "cash_in": 0,
    "type": "A",
    "working_weekends": 0,
    "is_digital": 0,
    "lat": "40.38592",
    "lng": "49.80835",
    "work_hours_week": "",
    "work_hours_saturday": "",
    "work_hours_sunday": "",
    "address": "Yasamal rayonu, 422-ci məhəllə, Mirzə İbrahimov küç. 53, 1-ci mərtəbə",
    "name": "Araz Market, Nizami-1",
    "working_days": [],
    "special_days": []
  },
  {
    "city_id": 1,
    "is_open": 1,
    "id": 1091,
    "slug": "ot-araz-yasamal",
    "is_nfc": 0,
    "cash_in": 0,
    "type": "A",
    "working_weekends": 0,
    "is_digital": 0,
    "lat": "40.38592",
    "lng": "49.80859",
    "work_hours_week": "",
    "work_hours_saturday": "",
    "work_hours_sunday": "",
    "address": "Yasamal rayonu, H.Zərdabi pr. 593-cü məhəllə",
    "name": "Araz Market Yasamal",
    "working_days": [],
    "special_days": []
  },
  {
    "city_id": 1,
    "is_open": 1,
    "id": 1092,
    "slug": "ot-il-market",
    "is_nfc": 0,
    "cash_in": 0,
    "type": "A",
    "working_weekends": 0,
    "is_digital": 0,
    "lat": "40.54752",
    "lng": "49.91097",
    "work_hours_week": "",
    "work_hours_saturday": "",
    "work_hours_sunday": "",
    "address": "Sabunçu rayonu, Kürdəxanı qəsəbəsi",
    "name": "İl market",
    "working_days": [],
    "special_days": []
  },
  {
    "city_id": 1,
    "is_open": 1,
    "id": 1093,
    "slug": "ot-favorit-market-bayil",
    "is_nfc": 0,
    "cash_in": 0,
    "type": "A",
    "working_weekends": 0,
    "is_digital": 0,
    "lat": "40.32894",
    "lng": "49.81885",
    "work_hours_week": "",
    "work_hours_saturday": "",
    "work_hours_sunday": "",
    "address": "Bakı şəhəri Səbail rayonu Salyan şössesi 20-ci ünvan",
    "name": "Favorit market Bayil (20-ci sahe)",
    "working_days": [],
    "special_days": []
  },
  {
    "city_id": 1,
    "is_open": 1,
    "id": 1094,
    "slug": "ot-araz-badamdar",
    "is_nfc": 0,
    "cash_in": 0,
    "type": "A",
    "working_weekends": 0,
    "is_digital": 0,
    "lat": "40.33899",
    "lng": "49.80744",
    "work_hours_week": "",
    "work_hours_saturday": "",
    "work_hours_sunday": "",
    "address": "Baki şəhəri, Səbail ray., Badamdar qəs., T.Məmmədov 3 və 5 unvanında yerləşən 18 mərtəbəli binanın 1-ci mərtəbəsi",
    "name": "Araz Market Badamdar-2",
    "working_days": [],
    "special_days": []
  },
  {
    "city_id": 74,
    "is_open": 1,
    "id": 1095,
    "slug": "ot-grandmart-shusha",
    "is_nfc": 0,
    "cash_in": 0,
    "type": "A",
    "working_weekends": 0,
    "is_digital": 0,
    "lat": "39.75322",
    "lng": "46.74633",
    "work_hours_week": "",
    "work_hours_saturday": "",
    "work_hours_sunday": "",
    "address": "Şuşa şəhəri",
    "name": "Grand market",
    "working_days": [],
    "special_days": []
  },
  {
    "city_id": 1,
    "is_open": 1,
    "id": 1097,
    "slug": "ot-araz-market-badamdar",
    "is_nfc": 0,
    "cash_in": 0,
    "type": "A",
    "working_weekends": 0,
    "is_digital": 0,
    "lat": "40.35114",
    "lng": "49.81062",
    "work_hours_week": "",
    "work_hours_saturday": "",
    "work_hours_sunday": "",
    "address": "Bakı şəhəri, Səbail Rayonu, Badamdar qəsəbəsi, 1 yaşayış massivi",
    "name": "Araz Market Badamdar",
    "working_days": [],
    "special_days": []
  },
  {
    "city_id": 1,
    "is_open": 1,
    "id": 1098,
    "slug": "ot-araz-market-sulutepe3",
    "is_nfc": 0,
    "cash_in": 0,
    "type": "A",
    "working_weekends": 0,
    "is_digital": 0,
    "lat": "40.43297",
    "lng": "49.77141",
    "work_hours_week": "",
    "work_hours_saturday": "",
    "work_hours_sunday": "",
    "address": "Bakı ş., Binəqədi r-nu, Sulutəpə qəs., R.Allahverdiyev küçəsi, ev 25F   ",
    "name": "Araz market Sulutəpə-3",
    "working_days": [],
    "special_days": []
  },
  {
    "city_id": 20,
    "is_open": 1,
    "id": 1099,
    "slug": "ot-sakit-market",
    "is_nfc": 0,
    "cash_in": 0,
    "type": "A",
    "working_weekends": 0,
    "is_digital": 0,
    "lat": "40.63896",
    "lng": "46.34411",
    "work_hours_week": "",
    "work_hours_saturday": "",
    "work_hours_sunday": "",
    "address": "Gəncə ş., Gülüstan qəsəbəsi, 37 saylı binanın cənub küç.",
    "name": "Sakit Market",
    "working_days": [],
    "special_days": []
  },
  {
    "city_id": 1,
    "is_open": 1,
    "id": 1100,
    "slug": "ot-favorit-market-resulzade",
    "is_nfc": 0,
    "cash_in": 0,
    "type": "A",
    "working_weekends": 0,
    "is_digital": 0,
    "lat": "40.43632",
    "lng": "49.84574",
    "work_hours_week": "",
    "work_hours_saturday": "",
    "work_hours_sunday": "",
    "address": "Bakı şəhəri, Binəqədi rayonu, Azadlıq prospekti 157",
    "name": "Favorit market Rəsulzadə",
    "working_days": [],
    "special_days": []
  },
  {
    "city_id": 1,
    "is_open": 1,
    "id": 1101,
    "slug": "ot-spar-market-resulzade",
    "is_nfc": 0,
    "cash_in": 0,
    "type": "A",
    "working_weekends": 0,
    "is_digital": 0,
    "lat": "40.43628",
    "lng": "49.84424",
    "work_hours_week": "",
    "work_hours_saturday": "",
    "work_hours_sunday": "",
    "address": "Bakı şəhəri, Binəqədi rayonu, M.Ə.Rəsulzadə qəsəbəsi, Binəqədi şosesi 195 E",
    "name": "Spar market Rəsulzadə",
    "working_days": [],
    "special_days": []
  },
  {
    "city_id": 1,
    "is_open": 1,
    "id": 1102,
    "slug": "araz-market-6mkr1",
    "is_nfc": 0,
    "cash_in": 0,
    "type": "A",
    "working_weekends": 0,
    "is_digital": 0,
    "lat": "40.42639",
    "lng": "49.83223",
    "work_hours_week": "",
    "work_hours_saturday": "",
    "work_hours_sunday": "",
    "address": "Bakı şəhəri, Binəqədi rayonu, 6 - cı mikrorayon, İsrafil Həşimov küçəsi ev 1 a",
    "name": "Araz market 6 Mkr 1",
    "working_days": [],
    "special_days": []
  },
  {
    "city_id": 1,
    "is_open": 1,
    "id": 1103,
    "slug": "araz-market-9mkr",
    "is_nfc": 0,
    "cash_in": 0,
    "type": "A",
    "working_weekends": 0,
    "is_digital": 0,
    "lat": "40.42034",
    "lng": "49.80946",
    "work_hours_week": "",
    "work_hours_saturday": "",
    "work_hours_sunday": "",
    "address": "Bakı şəhəri, Binəqədi rayonu, 9 mkr, H.Seyidzadə küçəsi 38",
    "name": "Araz Market 9 Mkr",
    "working_days": [],
    "special_days": []
  },
  {
    "city_id": 1,
    "is_open": 1,
    "id": 1104,
    "slug": "araz-market-binegedi",
    "is_nfc": 0,
    "cash_in": 0,
    "type": "A",
    "working_weekends": 0,
    "is_digital": 0,
    "lat": "40.46602",
    "lng": "49.82926",
    "work_hours_week": "",
    "work_hours_saturday": "",
    "work_hours_sunday": "",
    "address": "Bakı şəhəri, Binəqədi rayonu, Binəqədi ŞTQ 2-ci mədən",
    "name": "Araz Market Binəqədi",
    "working_days": [],
    "special_days": []
  },
  {
    "city_id": 1,
    "is_open": 1,
    "id": 1105,
    "slug": "ot-favorit-market-binegedi",
    "is_nfc": 0,
    "cash_in": 0,
    "type": "A",
    "working_weekends": 0,
    "is_digital": 0,
    "lat": "40.46602",
    "lng": "49.82931",
    "work_hours_week": "",
    "work_hours_saturday": "",
    "work_hours_sunday": "",
    "address": "Bakı şəhəri, Binəqədi rayonu, Gülməmməd Ramazanov küç (1 sayli qarışıq mallar mağazasi) 2-ci Mədən. Korpus-52",
    "name": "Favorit Market Binəqədi",
    "working_days": [],
    "special_days": []
  },
  {
    "city_id": 1,
    "is_open": 1,
    "id": 1106,
    "slug": "ot-abad-market",
    "is_nfc": 0,
    "cash_in": 0,
    "type": "A",
    "working_weekends": 0,
    "is_digital": 0,
    "lat": "41.48846",
    "lng": "46.62327",
    "work_hours_week": "",
    "work_hours_saturday": "",
    "work_hours_sunday": "",
    "address": "Zaqatala şəhəri, Əliabad qəsəbəsi",
    "name": "Abad Market",
    "working_days": [],
    "special_days": []
  },
  {
    "city_id": 1,
    "is_open": 1,
    "id": 1107,
    "slug": "ot-araz-market-7mkr-express",
    "is_nfc": 0,
    "cash_in": 0,
    "type": "A",
    "working_weekends": 0,
    "is_digital": 0,
    "lat": "40.43319",
    "lng": "49.85102",
    "work_hours_week": "",
    "work_hours_saturday": "",
    "work_hours_sunday": "",
    "address": "Bakı şəhəri, Binəqədi rayonu, 7-ci mkr, 3123-cü məhəllə",
    "name": "Araz Market 7 mkr express",
    "working_days": [],
    "special_days": []
  },
  {
    "city_id": 1,
    "is_open": 1,
    "id": 1108,
    "slug": "ot-araz-market-7mk-2",
    "is_nfc": 0,
    "cash_in": 0,
    "type": "A",
    "working_weekends": 0,
    "is_digital": 0,
    "lat": "40.42901",
    "lng": "49.85392",
    "work_hours_week": "",
    "work_hours_saturday": "",
    "work_hours_sunday": "",
    "address": "Bakı şəhəri, Binəqədi rayonu, F.Məlikov küçəsi 18a",
    "name": "Araz Market 7 mkr_2",
    "working_days": [],
    "special_days": []
  },
  {
    "city_id": 29,
    "is_open": 1,
    "id": 1109,
    "slug": "ot-ailevi-market-imishli",
    "is_nfc": 0,
    "cash_in": 0,
    "type": "A",
    "working_weekends": 0,
    "is_digital": 0,
    "lat": "39.86088",
    "lng": "48.06326",
    "work_hours_week": "",
    "work_hours_saturday": "",
    "work_hours_sunday": "",
    "address": "İmişli rayonu, M.Əzizbəyov küç. 10",
    "name": "Ailəvi Market",
    "working_days": [],
    "special_days": []
  },
  {
    "city_id": 1,
    "is_open": 1,
    "id": 1110,
    "slug": "ot-araz-market-7mk-3",
    "is_nfc": 0,
    "cash_in": 0,
    "type": "A",
    "working_weekends": 0,
    "is_digital": 0,
    "lat": "40.42686",
    "lng": "49.85000",
    "work_hours_week": "",
    "work_hours_saturday": "",
    "work_hours_sunday": "",
    "address": "Binəqədi ray., 7-ci mkr, S.S. Axundov küç. 3C",
    "name": "Araz Market  7mkr - 3",
    "working_days": [],
    "special_days": []
  },
  {
    "city_id": 1,
    "is_open": 1,
    "id": 1111,
    "slug": "ot-petek-market",
    "is_nfc": 0,
    "cash_in": 0,
    "type": "A",
    "working_weekends": 0,
    "is_digital": 0,
    "lat": "40.48075",
    "lng": "49.98632",
    "work_hours_week": "",
    "work_hours_saturday": "",
    "work_hours_sunday": "",
    "address": "Bakı ş. Elşən Məhərəmli küçəsi, Sovxoz Ramanı",
    "name": "PETEK Market",
    "working_days": [],
    "special_days": []
  },
  {
    "city_id": 1,
    "is_open": 1,
    "id": 1112,
    "slug": "ot-araz-market-20yanvar-2",
    "is_nfc": 0,
    "cash_in": 0,
    "type": "A",
    "working_weekends": 0,
    "is_digital": 0,
    "lat": "40.42035",
    "lng": "49.80950",
    "work_hours_week": "",
    "work_hours_saturday": "",
    "work_hours_sunday": "",
    "address": "Nəsimi ray, Memmed Cefer kuc ev b10,3006 mehelle",
    "name": "Araz Market 20 Yanvar-2",
    "working_days": [],
    "special_days": []
  },
  {
    "city_id": 11,
    "is_open": 1,
    "id": 1113,
    "slug": "ot-elvin-market",
    "is_nfc": 0,
    "cash_in": 0,
    "type": "A",
    "working_weekends": 0,
    "is_digital": 0,
    "lat": "39.61732",
    "lng": "47.65761",
    "work_hours_week": "",
    "work_hours_saturday": "",
    "work_hours_sunday": "",
    "address": "Füzuli, 1 saylı qəsəbə",
    "name": "Elvin Market",
    "working_days": [],
    "special_days": []
  },
  {
    "city_id": 1,
    "is_open": 1,
    "id": 1114,
    "slug": "ot-araz-market-azadliq2",
    "is_nfc": 0,
    "cash_in": 0,
    "type": "A",
    "working_weekends": 0,
    "is_digital": 0,
    "lat": "40.38521",
    "lng": "49.84448",
    "work_hours_week": "",
    "work_hours_saturday": "",
    "work_hours_sunday": "",
    "address": "Bakı şəhəri, Nəsimi rayonu, Vladislav Plotnikov, ev. 103 m. 1",
    "name": "Araz market Azadlıq 2",
    "working_days": [],
    "special_days": []
  },
  {
    "city_id": 62,
    "is_open": 1,
    "id": 1115,
    "slug": "ot-shirvan-market",
    "is_nfc": 0,
    "cash_in": 0,
    "type": "A",
    "working_weekends": 0,
    "is_digital": 0,
    "lat": "39.94302",
    "lng": "48.93161",
    "work_hours_week": "",
    "work_hours_saturday": "",
    "work_hours_sunday": "",
    "address": "Şirvan şəhəri, T.Ələkbərov küç. 1",
    "name": "Şirvan Dəniz Market",
    "working_days": [],
    "special_days": []
  },
  {
    "city_id": 1,
    "is_open": 1,
    "id": 1116,
    "slug": "ilyas-market-sabirabad",
    "is_nfc": 0,
    "cash_in": 0,
    "type": "A",
    "working_weekends": 0,
    "is_digital": 0,
    "lat": "39.99540",
    "lng": "48.47471",
    "work_hours_week": "",
    "work_hours_saturday": "",
    "work_hours_sunday": "",
    "address": "Sabirabad rayonu, Nərimankən kəndi",
    "name": "İlyas Market",
    "working_days": [],
    "special_days": []
  },
  {
    "city_id": 3,
    "is_open": 1,
    "id": 1117,
    "slug": "ot-eldaroglu-market",
    "is_nfc": 0,
    "cash_in": 0,
    "type": "A",
    "working_weekends": 0,
    "is_digital": 0,
    "lat": "39.97454",
    "lng": "47.41987",
    "work_hours_week": "",
    "work_hours_saturday": "",
    "work_hours_sunday": "",
    "address": "Ağcabədi rayonu, Avşar kəndi",
    "name": "Eldaroğlu Market",
    "working_days": [],
    "special_days": []
  },
  {
    "city_id": 1,
    "is_open": 1,
    "id": 1118,
    "slug": "ot-araz-market-komurcu",
    "is_nfc": 0,
    "cash_in": 0,
    "type": "A",
    "working_weekends": 0,
    "is_digital": 0,
    "lat": "40.38077",
    "lng": "49.83456",
    "work_hours_week": "",
    "work_hours_saturday": "",
    "work_hours_sunday": "",
    "address": "Bakı şəhəri, Nəsimi rayonu, Əlibəy Hüseynzadə küçəsi 84",
    "name": "Araz Market, Kömürçü (Ə.Hüseynzadə)",
    "working_days": [],
    "special_days": []
  },
  {
    "city_id": 1,
    "is_open": 1,
    "id": 1119,
    "slug": "ot-spar1-market",
    "is_nfc": 0,
    "cash_in": 0,
    "type": "A",
    "working_weekends": 0,
    "is_digital": 0,
    "lat": "40.40636",
    "lng": "49.81385",
    "work_hours_week": "",
    "work_hours_saturday": "",
    "work_hours_sunday": "",
    "address": "Baki şəhəri, Nəsimi rayonu, Cavadxan küçəsi, 3 MKN, 3005-ci məhəllə",
    "name": "Spar 1",
    "working_days": [],
    "special_days": []
  },
  {
    "city_id": 68,
    "is_open": 1,
    "id": 1120,
    "slug": "ot-billur-market",
    "is_nfc": 0,
    "cash_in": 0,
    "type": "A",
    "working_weekends": 0,
    "is_digital": 0,
    "lat": "41.63176",
    "lng": "46.65070",
    "work_hours_week": "",
    "work_hours_saturday": "",
    "work_hours_sunday": "",
    "address": "Zaqatala şəhəri, Nizami küçəsi 35",
    "name": "Billur Market",
    "working_days": [],
    "special_days": []
  },
  {
    "city_id": 49,
    "is_open": 1,
    "id": 1121,
    "slug": "ot-eli-market",
    "is_nfc": 0,
    "cash_in": 0,
    "type": "A",
    "working_weekends": 0,
    "is_digital": 0,
    "lat": "39.92289",
    "lng": "48.91306",
    "work_hours_week": "",
    "work_hours_saturday": "",
    "work_hours_sunday": "",
    "address": "Saatlı rayonu, Sarıcalar kəndi",
    "name": "Əli Market",
    "working_days": [],
    "special_days": []
  },
  {
    "city_id": 1,
    "is_open": 1,
    "id": 1122,
    "slug": "ot-favorit-inqlab",
    "is_nfc": 0,
    "cash_in": 0,
    "type": "A",
    "working_weekends": 0,
    "is_digital": 0,
    "lat": "40.40177",
    "lng": "49.84077",
    "work_hours_week": "",
    "work_hours_saturday": "",
    "work_hours_sunday": "",
    "address": "Bakı şəhəri, Nərimanov rayonu M.Əlizadə küçəsi, 917-ci məhəllə, ev 1",
    "name": "Favorit Inqilab",
    "working_days": [],
    "special_days": []
  },
  {
    "city_id": 50,
    "is_open": 1,
    "id": 1123,
    "slug": "ot-elsen-market",
    "is_nfc": 0,
    "cash_in": 0,
    "type": "A",
    "working_weekends": 0,
    "is_digital": 0,
    "lat": "39.96365",
    "lng": "48.84802",
    "work_hours_week": "",
    "work_hours_saturday": "",
    "work_hours_sunday": "",
    "address": "Sabirabad rayonu, Qaragüney kəndi",
    "name": "Elşən market",
    "working_days": [],
    "special_days": []
  },
  {
    "city_id": 59,
    "is_open": 1,
    "id": 1124,
    "slug": "ot-anar-market",
    "is_nfc": 0,
    "cash_in": 0,
    "type": "A",
    "working_weekends": 0,
    "is_digital": 0,
    "lat": "41.28095",
    "lng": "47.01667",
    "work_hours_week": "",
    "work_hours_saturday": "",
    "work_hours_sunday": "",
    "address": "Şəki şəhəri, Aşağı Göynük kəndi",
    "name": "Anar Market",
    "working_days": [],
    "special_days": []
  },
  {
    "city_id": 1,
    "is_open": 1,
    "id": 1125,
    "slug": "ot-spar-market-genclik",
    "is_nfc": 0,
    "cash_in": 0,
    "type": "A",
    "working_weekends": 0,
    "is_digital": 0,
    "lat": "40.39044",
    "lng": "49.84751",
    "work_hours_week": "",
    "work_hours_saturday": "",
    "work_hours_sunday": "",
    "address": "Bakı şəhəri, Nərimanov rayonu, 865 - ci məhəllə, Koroğlu Rəhimov küçəsi 22C",
    "name": "Spar Market, Genclik",
    "working_days": [],
    "special_days": []
  },
  {
    "city_id": 58,
    "is_open": 1,
    "id": 1126,
    "slug": "ot-fayton-market",
    "is_nfc": 0,
    "cash_in": 0,
    "type": "A",
    "working_weekends": 0,
    "is_digital": 0,
    "lat": "40.63202",
    "lng": "48.63681",
    "work_hours_week": "",
    "work_hours_saturday": "",
    "work_hours_sunday": "",
    "address": "Şamaxı şəhəri, H.Əliyev pr. 127",
    "name": "Fayton Market",
    "working_days": [],
    "special_days": []
  },
  {
    "city_id": 1,
    "is_open": 1,
    "id": 1127,
    "slug": "ot-araz-market-nerimanov4",
    "is_nfc": 0,
    "cash_in": 0,
    "type": "A",
    "working_weekends": 0,
    "is_digital": 0,
    "lat": "40.40213",
    "lng": "49.87913",
    "work_hours_week": "",
    "work_hours_saturday": "",
    "work_hours_sunday": "",
    "address": "Nəriman Nərimanov rayonu, Ə.Əliyev küçəsi, 26-cı məhəllə",
    "name": "Araz Market Nerimanov-4",
    "working_days": [],
    "special_days": []
  },
  {
    "city_id": 1,
    "is_open": 1,
    "id": 1128,
    "slug": "ot-araz-market-nerimanov-saf",
    "is_nfc": 0,
    "cash_in": 0,
    "type": "A",
    "working_weekends": 0,
    "is_digital": 0,
    "lat": "40.40212",
    "lng": "49.87422",
    "work_hours_week": "",
    "work_hours_saturday": "",
    "work_hours_sunday": "",
    "address": "Nərimanov r/n 1936 cı mehelle, Aga Neymetulla",
    "name": "Araz Market Nerimanov-Saf",
    "working_days": [],
    "special_days": []
  },
  {
    "city_id": 22,
    "is_open": 1,
    "id": 1129,
    "slug": "ot-xl-market",
    "is_nfc": 0,
    "cash_in": 0,
    "type": "A",
    "working_weekends": 0,
    "is_digital": 0,
    "lat": "40.63562",
    "lng": "47.75871",
    "work_hours_week": "",
    "work_hours_saturday": "",
    "work_hours_sunday": "",
    "address": "Göyçay rayonu, Bərgüşad yolu",
    "name": "XL market",
    "working_days": [],
    "special_days": []
  },
  {
    "city_id": 7,
    "is_open": 1,
    "id": 1130,
    "slug": "ot-buta-market",
    "is_nfc": 0,
    "cash_in": 0,
    "type": "A",
    "working_weekends": 0,
    "is_digital": 0,
    "lat": "40.58113",
    "lng": "48.39515",
    "work_hours_week": "",
    "work_hours_saturday": "",
    "work_hours_sunday": "",
    "address": "Ağsu rayonu, Bakı-Qazax yolu, 152-ci km",
    "name": "Buta market",
    "working_days": [],
    "special_days": []
  },
  {
    "city_id": 2,
    "is_open": 1,
    "id": 1131,
    "slug": "ot-araz-market-xirdalan4",
    "is_nfc": 0,
    "cash_in": 0,
    "type": "A",
    "working_weekends": 0,
    "is_digital": 0,
    "lat": "40.45864",
    "lng": "49.71426",
    "work_hours_week": "",
    "work_hours_saturday": "",
    "work_hours_sunday": "",
    "address": "Abşeron rayonu, Xırdalan şəhəri, M.Hüseynzadə küçəsi,1-ci mərtəbə",
    "name": "Araz Market Xırdalan-4",
    "working_days": [],
    "special_days": []
  },
  {
    "city_id": 2,
    "is_open": 1,
    "id": 1132,
    "slug": "ot-araz-market-masazir2",
    "is_nfc": 0,
    "cash_in": 0,
    "type": "A",
    "working_weekends": 0,
    "is_digital": 0,
    "lat": "40.47909",
    "lng": "49.75212",
    "work_hours_week": "",
    "work_hours_saturday": "",
    "work_hours_sunday": "",
    "address": "Abseron rayonu, Masazır qəsəbəsi, Əliağa Vahid küç.",
    "name": "Araz Market Masazır 2",
    "working_days": [],
    "special_days": []
  },
  {
    "city_id": 2,
    "is_open": 1,
    "id": 1133,
    "slug": "araz-market-saray2",
    "is_nfc": 0,
    "cash_in": 0,
    "type": "A",
    "working_weekends": 0,
    "is_digital": 0,
    "lat": "40.53273",
    "lng": "49.70802",
    "work_hours_week": "",
    "work_hours_saturday": "",
    "work_hours_sunday": "",
    "address": "Abşeron rayonu, Saray qəsəbəsi, Məhəmməd Əsədov küç, 68-ci binanın 1-ci mərtəbəsi",
    "name": "Araz Market Saray-2",
    "working_days": [],
    "special_days": []
  },
  {
    "city_id": 1,
    "is_open": 1,
    "id": 1134,
    "slug": "ot-araz-market-mehdiabad2",
    "is_nfc": 0,
    "cash_in": 0,
    "type": "A",
    "working_weekends": 0,
    "is_digital": 0,
    "lat": "40.48843",
    "lng": "49.85579",
    "work_hours_week": "",
    "work_hours_saturday": "",
    "work_hours_sunday": "",
    "address": "Abşeron rayonu, Mehdiabad qəsəbəsi, 28 may küçəsi",
    "name": "Araz Market Mehdiabad-2",
    "working_days": [],
    "special_days": []
  },
  {
    "city_id": 2,
    "is_open": 1,
    "id": 1135,
    "slug": "ot-araz-market-mehdiabad",
    "is_nfc": 0,
    "cash_in": 0,
    "type": "A",
    "working_weekends": 0,
    "is_digital": 0,
    "lat": "40.49639",
    "lng": "49.85707",
    "work_hours_week": "",
    "work_hours_saturday": "",
    "work_hours_sunday": "",
    "address": "Abşeron rayonu Mehdiabad qəsəbəsi Fatmai şossesi",
    "name": "Araz Market Mehdiabad",
    "working_days": [],
    "special_days": []
  },
  {
    "city_id": 2,
    "is_open": 1,
    "id": 1136,
    "slug": "ot-favorit-novxani",
    "is_nfc": 0,
    "cash_in": 0,
    "type": "A",
    "working_weekends": 0,
    "is_digital": 0,
    "lat": "40.49658",
    "lng": "49.85820",
    "work_hours_week": "",
    "work_hours_saturday": "",
    "work_hours_sunday": "",
    "address": "Abşeron rayonu, Novxanı kəndi",
    "name": "Favorit Novxani",
    "working_days": [],
    "special_days": []
  },
  {
    "city_id": 2,
    "is_open": 1,
    "id": 1137,
    "slug": "ot-araz-market-masazir3",
    "is_nfc": 0,
    "cash_in": 0,
    "type": "A",
    "working_weekends": 0,
    "is_digital": 0,
    "lat": "40.45761",
    "lng": "49.76111",
    "work_hours_week": "",
    "work_hours_saturday": "",
    "work_hours_sunday": "",
    "address": "Abşeron rayonu, Masazır kəndi",
    "name": "Araz Market Masazır - 3",
    "working_days": [],
    "special_days": []
  },
  {
    "city_id": 32,
    "is_open": 1,
    "id": 1138,
    "slug": "ot-asi-market",
    "is_nfc": 0,
    "cash_in": 0,
    "type": "A",
    "working_weekends": 0,
    "is_digital": 0,
    "lat": "40.33650",
    "lng": "48.15119",
    "work_hours_week": "",
    "work_hours_saturday": "",
    "work_hours_sunday": "",
    "address": "Kürdəmir rayonu, Bakı pr. 33",
    "name": "ASI market",
    "working_days": [],
    "special_days": []
  },
  {
    "city_id": 59,
    "is_open": 1,
    "id": 1139,
    "slug": "ot-ekonom-market",
    "is_nfc": 0,
    "cash_in": 0,
    "type": "A",
    "working_weekends": 0,
    "is_digital": 0,
    "lat": "41.19933",
    "lng": "47.17816",
    "work_hours_week": "",
    "work_hours_saturday": "",
    "work_hours_sunday": "",
    "address": "Şəki şəhəri, M.Ə.Rəsulzadə küç. 180",
    "name": "Ekonom Market",
    "working_days": [],
    "special_days": []
  },
  {
    "city_id": 50,
    "is_open": 1,
    "id": 1140,
    "slug": "ot-axtaci-market",
    "is_nfc": 0,
    "cash_in": 0,
    "type": "A",
    "working_weekends": 0,
    "is_digital": 0,
    "lat": "40.00766",
    "lng": "48.71620",
    "work_hours_week": "",
    "work_hours_saturday": "",
    "work_hours_sunday": "",
    "address": "Sabirabad rayonu, Axtacı-Muğan kəndi",
    "name": "Axtacı market",
    "working_days": [],
    "special_days": []
  },
  {
    "city_id": 60,
    "is_open": 1,
    "id": 1141,
    "slug": "ot-zumrud-market",
    "is_nfc": 0,
    "cash_in": 0,
    "type": "A",
    "working_weekends": 0,
    "is_digital": 0,
    "lat": "40.87801",
    "lng": "46.02861",
    "work_hours_week": "",
    "work_hours_saturday": "",
    "work_hours_sunday": "",
    "address": "Şəmkir şəhəri, Səməd Vurğun küç. 1",
    "name": "Zumrud Market",
    "working_days": [],
    "special_days": []
  },
  {
    "city_id": 20,
    "is_open": 1,
    "id": 1142,
    "slug": "ot-xanim-market",
    "is_nfc": 0,
    "cash_in": 0,
    "type": "A",
    "working_weekends": 0,
    "is_digital": 0,
    "lat": "40.68639",
    "lng": "46.38757",
    "work_hours_week": "",
    "work_hours_saturday": "",
    "work_hours_sunday": "",
    "address": "Gəncə şəhəri, Şah İsmayıl Xətai pr.",
    "name": "Xanim market",
    "working_days": [],
    "special_days": []
  },
  {
    "city_id": 6,
    "is_open": 1,
    "id": 1143,
    "slug": "ot-agstafa-market",
    "is_nfc": 0,
    "cash_in": 0,
    "type": "A",
    "working_weekends": 0,
    "is_digital": 0,
    "lat": "41.11454",
    "lng": "45.44732",
    "work_hours_week": "",
    "work_hours_saturday": "",
    "work_hours_sunday": "",
    "address": "Ağstafa rayonu, Rafiq Əlicanov küç. 5",
    "name": "Kəsəmən Market ",
    "working_days": [],
    "special_days": []
  },
  {
    "city_id": 18,
    "is_open": 1,
    "id": 1144,
    "slug": "ot-bolmart-market-xocavend",
    "is_nfc": 0,
    "cash_in": 0,
    "type": "A",
    "working_weekends": 0,
    "is_digital": 0,
    "lat": "39.51424",
    "lng": "47.03969",
    "work_hours_week": "",
    "work_hours_saturday": "",
    "work_hours_sunday": "",
    "address": "Xocavənd rayonu",
    "name": "Bolmart Hadrut flialı",
    "working_days": [],
    "special_days": []
  },
  {
    "city_id": 45,
    "is_open": 1,
    "id": 1145,
    "slug": "ot-cahan-alis-veris-merkezi",
    "is_nfc": 0,
    "cash_in": 0,
    "type": "A",
    "working_weekends": 0,
    "is_digital": 0,
    "lat": "39.19513",
    "lng": "45.42963",
    "work_hours_week": "",
    "work_hours_saturday": "",
    "work_hours_sunday": "",
    "address": "Naxçıvan şəh. Ə.Əliyev küç. 2",
    "name": "Cahan Alış-Veriş Mərkəzi MMC",
    "working_days": [],
    "special_days": []
  },
  {
    "city_id": 45,
    "is_open": 1,
    "id": 1146,
    "slug": "ot-cahan-mmc-ticaret-merkezi",
    "is_nfc": 0,
    "cash_in": 0,
    "type": "A",
    "working_weekends": 0,
    "is_digital": 0,
    "lat": "39.20627",
    "lng": "45.42477",
    "work_hours_week": "",
    "work_hours_saturday": "",
    "work_hours_sunday": "",
    "address": "Naxçıvan Şəh. Ə.Əliyev kç.10",
    "name": "Cahan MMC Ticarət Mərkəzi",
    "working_days": [],
    "special_days": []
  },
  {
    "city_id": 45,
    "is_open": 1,
    "id": 1147,
    "slug": "ot-park-avm",
    "is_nfc": 0,
    "cash_in": 0,
    "type": "A",
    "working_weekends": 0,
    "is_digital": 0,
    "lat": "39.20893",
    "lng": "45.40637",
    "work_hours_week": "",
    "work_hours_saturday": "",
    "work_hours_sunday": "",
    "address": "Naxçıvan şəhəri, Nizami küçəsi 27",
    "name": "PARK AVM",
    "working_days": [],
    "special_days": []
  },
  {
    "city_id": 9,
    "is_open": 1,
    "id": 1148,
    "slug": "ot-meiset-evi-market",
    "is_nfc": 0,
    "cash_in": 0,
    "type": "A",
    "working_weekends": 0,
    "is_digital": 0,
    "lat": "39.12048",
    "lng": "45.46766",
    "work_hours_week": "",
    "work_hours_saturday": "",
    "work_hours_sunday": "",
    "address": "Naxçıvan MR, Babək rayonu, Nehrəm kəndi",
    "name": "Məişət Evi, Market",
    "working_days": [],
    "special_days": []
  },
  {
    "city_id": 9,
    "is_open": 1,
    "id": 1149,
    "slug": "ot-babek-belediyye-binasi",
    "is_nfc": 0,
    "cash_in": 0,
    "type": "A",
    "working_weekends": 0,
    "is_digital": 0,
    "lat": "39.15841",
    "lng": "45.44542",
    "work_hours_week": "",
    "work_hours_saturday": "",
    "work_hours_sunday": "",
    "address": "Naxçıvan MR, Babək şəhəri, H.Əliyev pr.",
    "name": "Babək Bələdiyyənin binası",
    "working_days": [],
    "special_days": []
  },
  {
    "city_id": 9,
    "is_open": 1,
    "id": 1150,
    "slug": "ot-cehri-xidmet-merkezi",
    "is_nfc": 0,
    "cash_in": 0,
    "type": "A",
    "working_weekends": 0,
    "is_digital": 0,
    "lat": "39.35783",
    "lng": "45.40889",
    "work_hours_week": "",
    "work_hours_saturday": "",
    "work_hours_sunday": "",
    "address": "Naxçıvan MR, Babək rayonu, Cəhri qəsəbəsi",
    "name": "Cəhri Xidmət Mərkəzi",
    "working_days": [],
    "special_days": []
  },
  {
    "city_id": 16,
    "is_open": 1,
    "id": 1151,
    "slug": "ot-rabite-idaresi",
    "is_nfc": 0,
    "cash_in": 0,
    "type": "A",
    "working_weekends": 0,
    "is_digital": 0,
    "lat": "38.95577",
    "lng": "45.62857",
    "work_hours_week": "",
    "work_hours_saturday": "",
    "work_hours_sunday": "",
    "address": "Naxçıvan MR, Culfa şəhəri, Təbriz küç. 1",
    "name": "Culfa Rabitə İdarəsi",
    "working_days": [],
    "special_days": []
  },
  {
    "city_id": 48,
    "is_open": 1,
    "id": 1152,
    "slug": "ot-ticaret-merkezi-market",
    "is_nfc": 0,
    "cash_in": 0,
    "type": "A",
    "working_weekends": 0,
    "is_digital": 0,
    "lat": "38.90547",
    "lng": "46.01939",
    "work_hours_week": "",
    "work_hours_saturday": "",
    "work_hours_sunday": "",
    "address": "Naxçıvan MR, Ordubad şəhəri, H.Əliyev prospekti",
    "name": "Ticarət mərkəzi, Market",
    "working_days": [],
    "special_days": []
  },
  {
    "city_id": 31,
    "is_open": 1,
    "id": 1153,
    "slug": "ot-qivraq-qesebesi-erzaq-magazasi",
    "is_nfc": 0,
    "cash_in": 0,
    "type": "A",
    "working_weekends": 0,
    "is_digital": 0,
    "lat": "39.40117",
    "lng": "45.11144",
    "work_hours_week": "",
    "work_hours_saturday": "",
    "work_hours_sunday": "",
    "address": "Naxçıvan MR, Kəngərli rayonu, Qıvraq qəsəbəsi",
    "name": "Ərzaq Mağazası",
    "working_days": [],
    "special_days": []
  },
  {
    "city_id": 61,
    "is_open": 1,
    "id": 1154,
    "slug": "ot-iyt-tedrisi-merkezi",
    "is_nfc": 0,
    "cash_in": 0,
    "type": "A",
    "working_weekends": 0,
    "is_digital": 0,
    "lat": "39.55713",
    "lng": "44.98519",
    "work_hours_week": "",
    "work_hours_saturday": "",
    "work_hours_sunday": "",
    "address": "Naxçıvan MR, Şərur şəhəri, H.Əliyev prospekti",
    "name": "İnternet və Yeni Texnologiyaların Tədrisi Mərkəzi",
    "working_days": [],
    "special_days": []
  },
  {
    "city_id": 53,
    "is_open": 1,
    "id": 1155,
    "slug": "ot-sederek-rabite-evi",
    "is_nfc": 0,
    "cash_in": 0,
    "type": "A",
    "working_weekends": 0,
    "is_digital": 0,
    "lat": "39.70475",
    "lng": "44.88303",
    "work_hours_week": "",
    "work_hours_saturday": "",
    "work_hours_sunday": "",
    "address": "Naxçıvan MR, Sədərək rayonu, Sədərək kəndi",
    "name": "Rabitə evi",
    "working_days": [],
    "special_days": []
  },
  {
    "city_id": 57,
    "is_open": 1,
    "id": 1156,
    "slug": "ot-sahbuz-erzaq-magazasi",
    "is_nfc": 0,
    "cash_in": 0,
    "type": "A",
    "working_weekends": 0,
    "is_digital": 0,
    "lat": "39.40547",
    "lng": "45.56644",
    "work_hours_week": "",
    "work_hours_saturday": "",
    "work_hours_sunday": "",
    "address": "Naxçıvan MR, Şahbuz şəhəri, H.Əliyev prospekti",
    "name": "Ərzaq mağazası",
    "working_days": [],
    "special_days": []
  },
  {
    "city_id": 20,
    "is_open": 1,
    "id": 1182,
    "slug": "maxi-market",
    "is_nfc": 0,
    "cash_in": 0,
    "type": "A",
    "working_weekends": 0,
    "is_digital": 0,
    "lat": "40.705444",
    "lng": "46.366709",
    "work_hours_week": "",
    "work_hours_saturday": "",
    "work_hours_sunday": "",
    "address": "Maxi Market, Heydər Əliyev prospekdi",
    "name": "Maxi Market",
    "working_days": [],
    "special_days": []
  },
  {
    "city_id": 1,
    "is_open": 1,
    "id": 1193,
    "slug": "araz-market-sovetsky-ot",
    "is_nfc": 0,
    "cash_in": 0,
    "type": "A",
    "working_weekends": 0,
    "is_digital": 0,
    "lat": "40.45662",
    "lng": "49.74158",
    "work_hours_week": "",
    "work_hours_saturday": "",
    "work_hours_sunday": "",
    "address": "Araz Market, M.Huseynzade küçəsi, 1-ci mertebe",
    "name": "Araz Market, Sovetski",
    "working_days": [],
    "special_days": []
  },
  {
    "city_id": 1,
    "is_open": 1,
    "id": 1194,
    "slug": "araz-market-bina-ot",
    "is_nfc": 0,
    "cash_in": 0,
    "type": "A",
    "working_weekends": 0,
    "is_digital": 0,
    "lat": "40.45036",
    "lng": "50.08906",
    "work_hours_week": "",
    "work_hours_saturday": "",
    "work_hours_sunday": "",
    "address": "Araz Market, Əzizbəyov rayonu, Binə qəsəbəsi Ə.İsazadə küçəsi 5",
    "name": "Araz Market, Binə",
    "working_days": [],
    "special_days": []
  },
  {
    "city_id": 1,
    "is_open": 1,
    "id": 1195,
    "slug": "araz-market-bileceri-ot",
    "is_nfc": 0,
    "cash_in": 0,
    "type": "A",
    "working_weekends": 0,
    "is_digital": 0,
    "lat": "40.43625",
    "lng": "49.80342",
    "work_hours_week": "",
    "work_hours_saturday": "",
    "work_hours_sunday": "",
    "address": "Araz Market, Binəqədi rayonu, Biləcəri qəsəbəsi, Mehdi Hüseynzadə 17",
    "name": "Araz Market, Biləcəri",
    "working_days": [],
    "special_days": []
  },
  {
    "city_id": 1,
    "is_open": 1,
    "id": 1196,
    "slug": "araz-market-zabrat-mashtaga-ot",
    "is_nfc": 0,
    "cash_in": 0,
    "type": "A",
    "working_weekends": 0,
    "is_digital": 0,
    "lat": "40.50661",
    "lng": "49.97543",
    "work_hours_week": "",
    "work_hours_saturday": "",
    "work_hours_sunday": "",
    "address": "Araz Market, Sabuncu rayonu Maştağa qəsəbəsi, Zabrat-Maştağa şossesi",
    "name": "Araz Market, Zabrat-Maştağa",
    "working_days": [],
    "special_days": []
  },
  {
    "city_id": 1,
    "is_open": 1,
    "id": 1197,
    "slug": "araz-market-buzovna",
    "is_nfc": 0,
    "cash_in": 0,
    "type": "A",
    "working_weekends": 0,
    "is_digital": 0,
    "lat": "40.51667",
    "lng": "50.10243",
    "work_hours_week": "",
    "work_hours_saturday": "",
    "work_hours_sunday": "",
    "address": "Araz Market, Buzovna qəsəbəsi Heydər Eyvazov küçəsi 47",
    "name": "Araz Market, Buzovna",
    "working_days": [],
    "special_days": []
  },
  {
    "city_id": 1,
    "is_open": 1,
    "id": 1198,
    "slug": "araz-market-saatli",
    "is_nfc": 0,
    "cash_in": 0,
    "type": "A",
    "working_weekends": 0,
    "is_digital": 0,
    "lat": "40.37455",
    "lng": "49.81163",
    "work_hours_week": "",
    "work_hours_saturday": "",
    "work_hours_sunday": "",
    "address": "Araz Market, Yasamal Rayonu, Firuddin Ağayev küçəsi 9 ünvani",
    "name": "Araz Market, Saatlı",
    "working_days": [],
    "special_days": []
  },
  {
    "city_id": 2,
    "is_open": 1,
    "id": 1199,
    "slug": "araz-market-saray",
    "is_nfc": 0,
    "cash_in": 0,
    "type": "A",
    "working_weekends": 0,
    "is_digital": 0,
    "lat": "40.52429",
    "lng": "49.68744",
    "work_hours_week": "",
    "work_hours_saturday": "",
    "work_hours_sunday": "",
    "address": "Araz Market,  Saray qəsəbəsi",
    "name": "Araz Market, Saray",
    "working_days": [],
    "special_days": []
  },
  {
    "city_id": 2,
    "is_open": 1,
    "id": 1200,
    "slug": "araz-market-jayranbatan",
    "is_nfc": 0,
    "cash_in": 0,
    "type": "A",
    "working_weekends": 0,
    "is_digital": 0,
    "lat": "40.54368",
    "lng": "49.66297",
    "work_hours_week": "",
    "work_hours_saturday": "",
    "work_hours_sunday": "",
    "address": "Araz Market, Ceyranbatan qəsəbəsi, Bakı-Sumqayıt şossesi",
    "name": "Araz Market, Ceyranbatan",
    "working_days": [],
    "special_days": []
  },
  {
    "city_id": 1,
    "is_open": 1,
    "id": 1201,
    "slug": "araz-market-hovsan",
    "is_nfc": 0,
    "cash_in": 0,
    "type": "A",
    "working_weekends": 0,
    "is_digital": 0,
    "lat": "40.36069",
    "lng": "50.08003",
    "work_hours_week": "",
    "work_hours_saturday": "",
    "work_hours_sunday": "",
    "address": "Araz Market,  Suraxanı rayonu, Hövsan qəsəbəsi, İ.Əhlimanov küçəsi 225",
    "name": "Araz Market, Hövsan",
    "working_days": [],
    "special_days": []
  },
  {
    "city_id": 55,
    "is_open": 1,
    "id": 1202,
    "slug": "araz-market-9-microcosm",
    "is_nfc": 0,
    "cash_in": 0,
    "type": "A",
    "working_weekends": 0,
    "is_digital": 0,
    "lat": "40.5702",
    "lng": "49.68913",
    "work_hours_week": "",
    "work_hours_saturday": "",
    "work_hours_sunday": "",
    "address": "Araz Market, 9 mikrorayon, Üzəyir Hacibəyov küçəsi 25C",
    "name": "Araz Market, 9-cu mikrorayon",
    "working_days": [],
    "special_days": []
  },
  {
    "city_id": 2,
    "is_open": 1,
    "id": 1203,
    "slug": "araz-market-saray-2",
    "is_nfc": 0,
    "cash_in": 0,
    "type": "A",
    "working_weekends": 0,
    "is_digital": 0,
    "lat": "40.47901",
    "lng": "49.75255",
    "work_hours_week": "",
    "work_hours_saturday": "",
    "work_hours_sunday": "",
    "address": "Araz Market, Saray qesebesi,  Mehemmed Esedov küçəsi 68ci binanin1ci mertebesi",
    "name": "Araz Market, Saray 2",
    "working_days": [],
    "special_days": []
  },
  {
    "city_id": 1,
    "is_open": 1,
    "id": 1204,
    "slug": "araz-market-nasimi",
    "is_nfc": 0,
    "cash_in": 0,
    "type": "A",
    "working_weekends": 0,
    "is_digital": 0,
    "lat": "40.40128",
    "lng": "49.83154",
    "work_hours_week": "",
    "work_hours_saturday": "",
    "work_hours_sunday": "",
    "address": "Araz Market, Nəsimi rayonu, Mərdanov qardaşlari 137",
    "name": "Araz Market, Nəsimi",
    "working_days": [],
    "special_days": []
  },
  {
    "city_id": 1,
    "is_open": 1,
    "id": 1205,
    "slug": "araz-market-yasamal-2",
    "is_nfc": 0,
    "cash_in": 0,
    "type": "A",
    "working_weekends": 0,
    "is_digital": 0,
    "lat": "40.22518",
    "lng": "49.57233",
    "work_hours_week": "",
    "work_hours_saturday": "",
    "work_hours_sunday": "",
    "address": "Araz Market, Sahil qəsəbə, Məhərrəm Seyidov küçəsi 15",
    "name": "Araz Market, Yasamal 2",
    "working_days": [],
    "special_days": []
  },
  {
    "city_id": 1,
    "is_open": 1,
    "id": 1206,
    "slug": "zeytun-market-jafar-jabbarli",
    "is_nfc": 0,
    "cash_in": 0,
    "type": "A",
    "working_weekends": 0,
    "is_digital": 0,
    "lat": "40.38606",
    "lng": "49.84808",
    "work_hours_week": "",
    "work_hours_saturday": "",
    "work_hours_sunday": "",
    "address": "Zeytun Market, Nəsimi rayonu, Ceyhun Hacıbəyli 37A",
    "name": "Zeytun Market, Cəfər Cabbarlı",
    "working_days": [],
    "special_days": []
  },
  {
    "city_id": 1,
    "is_open": 1,
    "id": 1207,
    "slug": "azercell-plaza",
    "is_nfc": 0,
    "cash_in": 0,
    "type": "A",
    "working_weekends": 0,
    "is_digital": 0,
    "lat": "40.40007",
    "lng": "49.80954",
    "work_hours_week": "",
    "work_hours_saturday": "",
    "work_hours_sunday": "",
    "address": "Azərcell Plaza,  Yasamal rayonu, Tbilisi prospekti 149",
    "name": "Azərcell Plaza",
    "working_days": [],
    "special_days": []
  },
  {
    "city_id": 1,
    "is_open": 1,
    "id": 1208,
    "slug": "favorit-khazar",
    "is_nfc": 0,
    "cash_in": 0,
    "type": "A",
    "working_weekends": 0,
    "is_digital": 0,
    "lat": "40.3811",
    "lng": "49.96518",
    "work_hours_week": "",
    "work_hours_saturday": "",
    "work_hours_sunday": "",
    "address": "Favorit Xəzər,  Gəncə prospekti, 2942 saylı məhəllə, korpus 3",
    "name": "Favorit Xəzər",
    "working_days": [],
    "special_days": []
  },
  {
    "city_id": 1,
    "is_open": 1,
    "id": 1209,
    "slug": "favorit-neapol",
    "is_nfc": 0,
    "cash_in": 0,
    "type": "A",
    "working_weekends": 0,
    "is_digital": 0,
    "lat": "40.38365",
    "lng": "49.9666",
    "work_hours_week": "",
    "work_hours_saturday": "",
    "work_hours_sunday": "",
    "address": "Favorit Neapol, General Şıxlınski küçəsi 55",
    "name": "Favorit Neapol",
    "working_days": [],
    "special_days": []
  },
  {
    "city_id": 55,
    "is_open": 1,
    "id": 1210,
    "slug": "gayali-market-xirdalan",
    "is_nfc": 0,
    "cash_in": 0,
    "type": "A",
    "working_weekends": 0,
    "is_digital": 0,
    "lat": "40.61906",
    "lng": "49.56253",
    "work_hours_week": "",
    "work_hours_saturday": "",
    "work_hours_sunday": "",
    "address": "Qayalı market, H.Z.Tağıyev qəsəbəsi",
    "name": "Qayalı Market, Xırdalan",
    "working_days": [],
    "special_days": []
  },
  {
    "city_id": 55,
    "is_open": 1,
    "id": 1211,
    "slug": "gayali-market-kubinka",
    "is_nfc": 0,
    "cash_in": 0,
    "type": "A",
    "working_weekends": 0,
    "is_digital": 0,
    "lat": "40.56999",
    "lng": "49.67535",
    "work_hours_week": "",
    "work_hours_saturday": "",
    "work_hours_sunday": "",
    "address": "Qayalı Market, 11-ci mikrorayon, Ş.Bədəlbəyli küçəsi",
    "name": "Qayalı Market, Kubinka",
    "working_days": [],
    "special_days": []
  },
  {
    "city_id": 55,
    "is_open": 1,
    "id": 1212,
    "slug": "gayali-market-zabrat",
    "is_nfc": 0,
    "cash_in": 0,
    "type": "A",
    "working_weekends": 0,
    "is_digital": 0,
    "lat": "40.56854",
    "lng": "49.69181",
    "work_hours_week": "",
    "work_hours_saturday": "",
    "work_hours_sunday": "",
    "address": "Qayalı Market, 10-cu mikrorayon, Babək küçəsi",
    "name": "Qayali market, Zabrat",
    "working_days": [],
    "special_days": []
  },
  {
    "city_id": 50,
    "is_open": 1,
    "id": 1213,
    "slug": "ulacali-market",
    "is_nfc": 0,
    "cash_in": 0,
    "type": "A",
    "working_weekends": 0,
    "is_digital": 0,
    "lat": "40.07268",
    "lng": "48.59251",
    "work_hours_week": "",
    "work_hours_saturday": "",
    "work_hours_sunday": "",
    "address": "Ulacalı market, Ulacalı kendi",
    "name": "Ulacalı Market",
    "working_days": [],
    "special_days": []
  },
  {
    "city_id": 1,
    "is_open": 1,
    "id": 1214,
    "slug": "araz-market-yasamal-3",
    "is_nfc": 0,
    "cash_in": 0,
    "type": "A",
    "working_weekends": 0,
    "is_digital": 0,
    "lat": "40.36661",
    "lng": "49.81684",
    "work_hours_week": "",
    "work_hours_saturday": "",
    "work_hours_sunday": "",
    "address": "Araz Market, Yasamal rayonu, Hüseyn Cavid prospekti 17",
    "name": "Araz Market, Yasamal 3",
    "working_days": [],
    "special_days": []
  },
  {
    "city_id": 24,
    "is_open": 1,
    "id": 1215,
    "slug": "hajigabul-talish",
    "is_nfc": 0,
    "cash_in": 0,
    "type": "A",
    "working_weekends": 0,
    "is_digital": 0,
    "lat": "40.03886",
    "lng": "48.92142",
    "work_hours_week": "",
    "work_hours_saturday": "",
    "work_hours_sunday": "",
    "address": "Haciqabul rayon, Talış kəndi",
    "name": "Hacıqabul Talış T.M",
    "working_days": [],
    "special_days": []
  },
  {
    "city_id": 1,
    "is_open": 1,
    "id": 1216,
    "slug": "araz-market-yeni-yasamal",
    "is_nfc": 0,
    "cash_in": 0,
    "type": "A",
    "working_weekends": 0,
    "is_digital": 0,
    "lat": "40.38198",
    "lng": "49.80717",
    "work_hours_week": "",
    "work_hours_saturday": "",
    "work_hours_sunday": "",
    "address": "Araz Market, Yasamal rayonu, Yeni Yasamal-1 küçəsi 14",
    "name": "Araz Market, Yeni Yasamal",
    "working_days": [],
    "special_days": []
  },
  {
    "city_id": 59,
    "is_open": 1,
    "id": 1217,
    "slug": "shaki-store-market",
    "is_nfc": 0,
    "cash_in": 0,
    "type": "A",
    "working_weekends": 0,
    "is_digital": 0,
    "lat": "41.19804",
    "lng": "47.17607",
    "work_hours_week": "",
    "work_hours_saturday": "",
    "work_hours_sunday": "",
    "address": "Şəki Store Market, M.Ə.Rəsulzadə küçəsi 166B",
    "name": "Şəki Store market",
    "working_days": [],
    "special_days": []
  },
  {
    "city_id": 1,
    "is_open": 1,
    "id": 1218,
    "slug": "araz-market-yasamal-4",
    "is_nfc": 0,
    "cash_in": 0,
    "type": "A",
    "working_weekends": 0,
    "is_digital": 0,
    "lat": "40.38023",
    "lng": "49.80725",
    "work_hours_week": "",
    "work_hours_saturday": "",
    "work_hours_sunday": "",
    "address": "Araz Market, Yasamal rayonu, M.Seyidov küçəsi 23",
    "name": "Araz Market, Yasamal 4",
    "working_days": [],
    "special_days": []
  },
  {
    "city_id": 50,
    "is_open": 1,
    "id": 1219,
    "slug": "oba-market-nizami",
    "is_nfc": 0,
    "cash_in": 0,
    "type": "A",
    "working_weekends": 0,
    "is_digital": 0,
    "lat": "40.01952",
    "lng": "48.47804",
    "work_hours_week": "",
    "work_hours_saturday": "",
    "work_hours_sunday": "",
    "address": "Oba market, Nizami kəndi",
    "name": "Oba Market, Nizami",
    "working_days": [],
    "special_days": []
  },
  {
    "city_id": 1,
    "is_open": 1,
    "id": 1220,
    "slug": "araz-market-minkachevir",
    "is_nfc": 0,
    "cash_in": 0,
    "type": "A",
    "working_weekends": 0,
    "is_digital": 0,
    "lat": "40.37733",
    "lng": "49.81053",
    "work_hours_week": "",
    "work_hours_saturday": "",
    "work_hours_sunday": "",
    "address": "Araz Market, Şəhriyar küçəsi 6 nomrəli binanin 1 ci mərtəbəsi",
    "name": "Araz Market, Mingəçevir",
    "working_days": [],
    "special_days": []
  },
  {
    "city_id": 1,
    "is_open": 1,
    "id": 1221,
    "slug": "araz-market-sovetsky-2",
    "is_nfc": 0,
    "cash_in": 0,
    "type": "A",
    "working_weekends": 0,
    "is_digital": 0,
    "lat": "40.37793",
    "lng": "49.83313",
    "work_hours_week": "",
    "work_hours_saturday": "",
    "work_hours_sunday": "",
    "address": "Araz Market,  422-ci məhəllə Mirzə İbrahimov küçəsi 53, 1-ci mərtəbə",
    "name": "Araz Market, Sovetski 2",
    "working_days": [],
    "special_days": []
  },
  {
    "city_id": 1,
    "is_open": 1,
    "id": 1222,
    "slug": "araz-market-yasamal-5",
    "is_nfc": 0,
    "cash_in": 0,
    "type": "A",
    "working_weekends": 0,
    "is_digital": 0,
    "lat": "40.38592",
    "lng": "49.80859",
    "work_hours_week": "",
    "work_hours_saturday": "",
    "work_hours_sunday": "",
    "address": "Araz Market, Yasamal rayonu, H.Zərdabi prospekti, 593-cü məhəllə",
    "name": "Araz Market, Yasamal 5",
    "working_days": [],
    "special_days": []
  },
  {
    "city_id": 1,
    "is_open": 1,
    "id": 1230,
    "slug": "favorit-market-salyan",
    "is_nfc": 0,
    "cash_in": 0,
    "type": "A",
    "working_weekends": 0,
    "is_digital": 0,
    "lat": "40.32894",
    "lng": "49.81885",
    "work_hours_week": "",
    "work_hours_saturday": "",
    "work_hours_sunday": "",
    "address": "Favorit Market, Səbail rayonu, Salyan şössesi 20-ci ünvan",
    "name": "Favorit market, Salyan",
    "working_days": [],
    "special_days": []
  },
  {
    "city_id": 1,
    "is_open": 1,
    "id": 1231,
    "slug": "araz-market-badamdar",
    "is_nfc": 0,
    "cash_in": 0,
    "type": "A",
    "working_weekends": 0,
    "is_digital": 0,
    "lat": "40.33899",
    "lng": "49.80744",
    "work_hours_week": "",
    "work_hours_saturday": "",
    "work_hours_sunday": "",
    "address": "Araz Market,  Badamdar qəsəbəsi, T.Memmedov 3 ve 5 unvaninda yerlesen 18 mertebeli binanin 1ci mertebesi",
    "name": "Araz Market, Badamdar",
    "working_days": [],
    "special_days": []
  },
  {
    "city_id": 1,
    "is_open": 1,
    "id": 1232,
    "slug": "araz-market-badamdar-2",
    "is_nfc": 0,
    "cash_in": 0,
    "type": "A",
    "working_weekends": 0,
    "is_digital": 0,
    "lat": "40.35114",
    "lng": "49.81062",
    "work_hours_week": "",
    "work_hours_saturday": "",
    "work_hours_sunday": "",
    "address": "Araz Market, Səbail Rayonu, Badamdar qəsəbəsi, 1 yaşayış massivi",
    "name": "Araz Market, Badamdar 2",
    "working_days": [],
    "special_days": []
  },
  {
    "city_id": 1,
    "is_open": 1,
    "id": 1233,
    "slug": "araz-market-sulutepe",
    "is_nfc": 0,
    "cash_in": 0,
    "type": "A",
    "working_weekends": 0,
    "is_digital": 0,
    "lat": "40.43297",
    "lng": "49.77141",
    "work_hours_week": "",
    "work_hours_saturday": "",
    "work_hours_sunday": "",
    "address": "Araz Market, Binəqədi rayonu, Sulutəpə qəsəbəsi, rayonu Allahverdiyev küçəsi, ev 25F   ",
    "name": "Araz Market, Sulutəpə",
    "working_days": [],
    "special_days": []
  },
  {
    "city_id": 20,
    "is_open": 1,
    "id": 1234,
    "slug": "sakit-market-gulustan",
    "is_nfc": 0,
    "cash_in": 0,
    "type": "A",
    "working_weekends": 0,
    "is_digital": 0,
    "lat": "40.76785",
    "lng": "46.40851",
    "work_hours_week": "",
    "work_hours_saturday": "",
    "work_hours_sunday": "",
    "address": "Sakit Market, Gülüstan qəsəbəsi, 37 saylı Binanın cənub küçəsi",
    "name": "Sakit Market, Gülüstan",
    "working_days": [],
    "special_days": []
  },
  {
    "city_id": 1,
    "is_open": 1,
    "id": 1235,
    "slug": "favorit-nasimi",
    "is_nfc": 0,
    "cash_in": 0,
    "type": "A",
    "working_weekends": 0,
    "is_digital": 0,
    "lat": "40.43632",
    "lng": "49.84574",
    "work_hours_week": "",
    "work_hours_saturday": "",
    "work_hours_sunday": "",
    "address": "Favorit, Binəqədi rayonu, Azadlıq prospekti 157",
    "name": "Favorit, Nəsimi",
    "working_days": [],
    "special_days": []
  },
  {
    "city_id": 1,
    "is_open": 1,
    "id": 1236,
    "slug": "spar-market-2",
    "is_nfc": 0,
    "cash_in": 0,
    "type": "A",
    "working_weekends": 0,
    "is_digital": 0,
    "lat": "40.43628",
    "lng": "49.84424",
    "work_hours_week": "",
    "work_hours_saturday": "",
    "work_hours_sunday": "",
    "address": "Spar Market, Binəqədi rayonu M.Ə.Rəsulzadə qəsəbəsi Binəqədi şossesi 195 E",
    "name": "Spar market 2",
    "working_days": [],
    "special_days": []
  },
  {
    "city_id": 1,
    "is_open": 1,
    "id": 1237,
    "slug": "araz-market-bineqedi",
    "is_nfc": 0,
    "cash_in": 0,
    "type": "A",
    "working_weekends": 0,
    "is_digital": 0,
    "lat": "40.42639",
    "lng": "49.83223",
    "work_hours_week": "",
    "work_hours_saturday": "",
    "work_hours_sunday": "",
    "address": "Araz Market,  Binəqədi rayonu, 6 - cı mikrorayon, İsrafil Həşimov küçəsi, ev 1a",
    "name": "Araz Market, Binəqədi",
    "working_days": [],
    "special_days": []
  },
  {
    "city_id": 1,
    "is_open": 1,
    "id": 1238,
    "slug": "araz-market-2-microdistrict",
    "is_nfc": 0,
    "cash_in": 0,
    "type": "A",
    "working_weekends": 0,
    "is_digital": 0,
    "lat": "40.42034",
    "lng": "49.80946",
    "work_hours_week": "",
    "work_hours_saturday": "",
    "work_hours_sunday": "",
    "address": "Araz Market, Binəqədi rayonu, 9 mikrorayon, H.Seyidzadə küçəsi 38",
    "name": "Araz Market, 2-ci mikrorayon",
    "working_days": [],
    "special_days": []
  },
  {
    "city_id": 1,
    "is_open": 1,
    "id": 1239,
    "slug": "araz-market-bineqedi-2",
    "is_nfc": 0,
    "cash_in": 0,
    "type": "A",
    "working_weekends": 0,
    "is_digital": 0,
    "lat": "40.46602",
    "lng": "49.82926",
    "work_hours_week": "",
    "work_hours_saturday": "",
    "work_hours_sunday": "",
    "address": "Araz Market, Binəqədi rayonu, Binəqədi ŞTQ 2-ci mədən",
    "name": "Araz Market, Binəqədi",
    "working_days": [],
    "special_days": []
  },
  {
    "city_id": 45,
    "is_open": 1,
    "id": 1240,
    "slug": "danyeri-avm",
    "is_nfc": 0,
    "cash_in": 0,
    "type": "A",
    "working_weekends": 0,
    "is_digital": 0,
    "lat": "39.21264",
    "lng": "45.42209",
    "work_hours_week": "",
    "work_hours_saturday": "",
    "work_hours_sunday": "",
    "address": "Danyeri AVM, Ə.Əliyev küçəsi 46",
    "name": "Danyeri AVM",
    "working_days": [],
    "special_days": []
  },
  {
    "city_id": 45,
    "is_open": 1,
    "id": 1241,
    "slug": "park-avm",
    "is_nfc": 0,
    "cash_in": 0,
    "type": "A",
    "working_weekends": 0,
    "is_digital": 0,
    "lat": "39.20893",
    "lng": "45.40637",
    "work_hours_week": "",
    "work_hours_saturday": "",
    "work_hours_sunday": "",
    "address": "Park AVM, Nizami küçəsi 27",
    "name": "Park AVM",
    "working_days": [],
    "special_days": []
  },
  {
    "city_id": 45,
    "is_open": 1,
    "id": 1242,
    "slug": "cahan-mmc",
    "is_nfc": 0,
    "cash_in": 0,
    "type": "A",
    "working_weekends": 0,
    "is_digital": 0,
    "lat": "39.20627",
    "lng": "45.42477",
    "work_hours_week": "",
    "work_hours_saturday": "",
    "work_hours_sunday": "",
    "address": "Cahan MMC Ticarət Mərkəzi, Ə. Əliyev küçəsi 10",
    "name": "Cahan MMC Ticarət Mərkəzi",
    "working_days": [],
    "special_days": []
  },
  {
    "city_id": 45,
    "is_open": 1,
    "id": 1243,
    "slug": "cahan-alish-verish",
    "is_nfc": 0,
    "cash_in": 0,
    "type": "A",
    "working_weekends": 0,
    "is_digital": 0,
    "lat": "39.19513",
    "lng": "45.42963",
    "work_hours_week": "",
    "work_hours_saturday": "",
    "work_hours_sunday": "",
    "address": "Cahan, Ə.Əliyev küçəsi. 2",
    "name": "Cahan - Alış Veriş Mərkəzi MMC",
    "working_days": [],
    "special_days": []
  },
  {
    "city_id": 1,
    "is_open": 1,
    "id": 1244,
    "slug": "bolmart-sumqayit",
    "is_nfc": 0,
    "cash_in": 0,
    "type": "A",
    "working_weekends": 0,
    "is_digital": 0,
    "lat": "40.5221",
    "lng": "49.68911",
    "work_hours_week": "",
    "work_hours_saturday": "",
    "work_hours_sunday": "",
    "address": "Bolmart, Sumqayıt yolu, Saray postu",
    "name": "Bolmart, Sumqayıt",
    "working_days": [],
    "special_days": []
  },
  {
    "city_id": 1,
    "is_open": 1,
    "id": 1245,
    "slug": "favorit-market-binagadi",
    "is_nfc": 0,
    "cash_in": 0,
    "type": "A",
    "working_weekends": 0,
    "is_digital": 0,
    "lat": "40.46602",
    "lng": "49.82931",
    "work_hours_week": "",
    "work_hours_saturday": "",
    "work_hours_sunday": "",
    "address": "Favorit Market, Binəqədi rayonu, Gülməmməd Ramazanov küçəsi",
    "name": "Favorit Market, Binəqədi",
    "working_days": [],
    "special_days": []
  },
  {
    "city_id": 68,
    "is_open": 1,
    "id": 1246,
    "slug": "araz-market-aliabad",
    "is_nfc": 0,
    "cash_in": 0,
    "type": "A",
    "working_weekends": 0,
    "is_digital": 0,
    "lat": "41.48846",
    "lng": "46.62327",
    "work_hours_week": "",
    "work_hours_saturday": "",
    "work_hours_sunday": "",
    "address": "Araz Market, Əliabad qəsəbəsi",
    "name": "Araz Market, Əliabad qəsəbəsi",
    "working_days": [],
    "special_days": []
  },
  {
    "city_id": 1,
    "is_open": 1,
    "id": 1247,
    "slug": "araz-market-7-mikrorayon",
    "is_nfc": 0,
    "cash_in": 0,
    "type": "A",
    "working_weekends": 0,
    "is_digital": 0,
    "lat": "40.43319",
    "lng": "49.85102",
    "work_hours_week": "",
    "work_hours_saturday": "",
    "work_hours_sunday": "",
    "address": "Araz Market, Binəqədi rayonu,7 mikrorayon, 3123-cü məhəllə",
    "name": "Araz Market, 7ci mikrorayon",
    "working_days": [],
    "special_days": []
  },
  {
    "city_id": 1,
    "is_open": 1,
    "id": 1248,
    "slug": "araz-market-7-mikrorayon-2",
    "is_nfc": 0,
    "cash_in": 0,
    "type": "A",
    "working_weekends": 0,
    "is_digital": 0,
    "lat": "40.42901",
    "lng": "49.85392",
    "work_hours_week": "",
    "work_hours_saturday": "",
    "work_hours_sunday": "",
    "address": "Araz Market, Binəqədi rayonu, F.Məlikov küçəsi 18a",
    "name": "Araz Market, 7ci mikrorayon 2",
    "working_days": [],
    "special_days": []
  },
  {
    "city_id": 29,
    "is_open": 1,
    "id": 1249,
    "slug": "ailevi-market",
    "is_nfc": 0,
    "cash_in": 0,
    "type": "A",
    "working_weekends": 0,
    "is_digital": 0,
    "lat": "39.86088",
    "lng": "48.06326",
    "work_hours_week": "",
    "work_hours_saturday": "",
    "work_hours_sunday": "",
    "address": "Ailəvi market,  M. Əzizbəyov küçəsi 10",
    "name": "Ailəvi market",
    "working_days": [],
    "special_days": []
  },
  {
    "city_id": 1,
    "is_open": 1,
    "id": 1250,
    "slug": "araz-market-7-mikrorayon-3",
    "is_nfc": 0,
    "cash_in": 0,
    "type": "A",
    "working_weekends": 0,
    "is_digital": 0,
    "lat": "40.42686",
    "lng": "49.85",
    "work_hours_week": "",
    "work_hours_saturday": "",
    "work_hours_sunday": "",
    "address": "Araz Market, 7-ci mikrorayon, S.S.Axundov küçəsi. 3C",
    "name": "Araz Market, 7ci mikrorayon 3",
    "working_days": [],
    "special_days": []
  },
  {
    "city_id": 1,
    "is_open": 1,
    "id": 1251,
    "slug": "araz-market-8-microrayon",
    "is_nfc": 0,
    "cash_in": 0,
    "type": "A",
    "working_weekends": 0,
    "is_digital": 0,
    "lat": "40.42489",
    "lng": "49.84294",
    "work_hours_week": "",
    "work_hours_saturday": "",
    "work_hours_sunday": "",
    "address": "Araz Market, 8-ci mikrorayon İbrahimpaşa Dadaşov küçəsi 91",
    "name": "Araz Market, 8ci mikrorayon",
    "working_days": [],
    "special_days": []
  },
  {
    "city_id": 1,
    "is_open": 1,
    "id": 1252,
    "slug": "araz-market-1-microdistrict",
    "is_nfc": 0,
    "cash_in": 0,
    "type": "A",
    "working_weekends": 0,
    "is_digital": 0,
    "lat": "40.42035",
    "lng": "49.8095",
    "work_hours_week": "",
    "work_hours_saturday": "",
    "work_hours_sunday": "",
    "address": "Araz Market, Nəsimi rayonu, Memmed Cefer küçəsi",
    "name": "Araz Market, 1ci mikrorayon",
    "working_days": [],
    "special_days": []
  },
  {
    "city_id": 1,
    "is_open": 1,
    "id": 1253,
    "slug": "araz-market-jafar-jabbarli",
    "is_nfc": 0,
    "cash_in": 0,
    "type": "A",
    "working_weekends": 0,
    "is_digital": 0,
    "lat": "40.38521",
    "lng": "49.84448",
    "work_hours_week": "",
    "work_hours_saturday": "",
    "work_hours_sunday": "",
    "address": "Araz Market, Nəsimi rayonu, Vladislav Plotnikov küçəsi",
    "name": "Araz Market, Cəfər Cabbarov",
    "working_days": [],
    "special_days": []
  },
  {
    "city_id": 1,
    "is_open": 1,
    "id": 1254,
    "slug": "grandmart",
    "is_nfc": 0,
    "cash_in": 0,
    "type": "A",
    "working_weekends": 0,
    "is_digital": 0,
    "lat": "40.37631",
    "lng": "49.84188",
    "work_hours_week": "",
    "work_hours_saturday": "",
    "work_hours_sunday": "",
    "address": "GrandMart, Səməd Vurgun 34 küçəsi",
    "name": "GrandMart",
    "working_days": [],
    "special_days": []
  },
  {
    "city_id": 1,
    "is_open": 1,
    "id": 1255,
    "slug": "avtomart",
    "is_nfc": 0,
    "cash_in": 0,
    "type": "A",
    "working_weekends": 0,
    "is_digital": 0,
    "lat": "40.37716",
    "lng": "49.85501",
    "work_hours_week": "",
    "work_hours_saturday": "",
    "work_hours_sunday": "",
    "address": "AvroMart, Nəsimi rayonu, Nizami küçəsi 129e",
    "name": "AvroMart",
    "working_days": [],
    "special_days": []
  },
  {
    "city_id": 1,
    "is_open": 1,
    "id": 1256,
    "slug": "bolmart-super-market",
    "is_nfc": 0,
    "cash_in": 0,
    "type": "A",
    "working_weekends": 0,
    "is_digital": 0,
    "lat": "40.42128",
    "lng": "49.81493",
    "work_hours_week": "",
    "work_hours_saturday": "",
    "work_hours_sunday": "",
    "address": "Bolmart Super Market, Binəqədi rayonu M.Cəlal küçəsi 314",
    "name": "Bolmart Super Market",
    "working_days": [],
    "special_days": []
  },
  {
    "city_id": 62,
    "is_open": 1,
    "id": 1257,
    "slug": "deniz-market",
    "is_nfc": 0,
    "cash_in": 0,
    "type": "A",
    "working_weekends": 0,
    "is_digital": 0,
    "lat": "39.94302",
    "lng": "48.93161",
    "work_hours_week": "",
    "work_hours_saturday": "",
    "work_hours_sunday": "",
    "address": "Dəniz Market, T.Ələkbərov 1",
    "name": "Dəniz Market",
    "working_days": [],
    "special_days": []
  },
  {
    "city_id": 1,
    "is_open": 1,
    "id": 1258,
    "slug": "araz-market-nizami",
    "is_nfc": 0,
    "cash_in": 0,
    "type": "A",
    "working_weekends": 0,
    "is_digital": 0,
    "lat": "40.38077",
    "lng": "49.83456",
    "work_hours_week": "",
    "work_hours_saturday": "",
    "work_hours_sunday": "",
    "address": "Araz Market, Nəsimi rayonu, Əlibəy Hüseynzadə küçəsi 84",
    "name": "Araz Market, Nizami",
    "working_days": [],
    "special_days": []
  },
  {
    "city_id": 1,
    "is_open": 1,
    "id": 1259,
    "slug": "spar-nasimi",
    "is_nfc": 0,
    "cash_in": 0,
    "type": "A",
    "working_weekends": 0,
    "is_digital": 0,
    "lat": "40.37489",
    "lng": "49.84148",
    "work_hours_week": "",
    "work_hours_saturday": "",
    "work_hours_sunday": "",
    "address": "Spar, Nəsimi rayonu, Səməd Vurğun küçəsi 19",
    "name": "Spar, Nəsimi",
    "working_days": [],
    "special_days": []
  },
  {
    "city_id": 1,
    "is_open": 1,
    "id": 1260,
    "slug": "spar-3-microrayon",
    "is_nfc": 0,
    "cash_in": 0,
    "type": "A",
    "working_weekends": 0,
    "is_digital": 0,
    "lat": "40.40636",
    "lng": "49.81385",
    "work_hours_week": "",
    "work_hours_saturday": "",
    "work_hours_sunday": "",
    "address": "Spar, Nəsimi rayonu Cavadxan küçəsi 3",
    "name": "Spar, 3cü mikrorayon",
    "working_days": [],
    "special_days": []
  },
  {
    "city_id": 68,
    "is_open": 1,
    "id": 1261,
    "slug": "billur-market",
    "is_nfc": 0,
    "cash_in": 0,
    "type": "A",
    "working_weekends": 0,
    "is_digital": 0,
    "lat": "41.63176",
    "lng": "46.6507",
    "work_hours_week": "",
    "work_hours_saturday": "",
    "work_hours_sunday": "",
    "address": "Billur Market, Nizami küçəsi 35",
    "name": "Billur Market",
    "working_days": [],
    "special_days": []
  },
  {
    "city_id": 1,
    "is_open": 1,
    "id": 1262,
    "slug": "favorit-market-alizade",
    "is_nfc": 0,
    "cash_in": 0,
    "type": "A",
    "working_weekends": 0,
    "is_digital": 0,
    "lat": "40.40177",
    "lng": "49.84077",
    "work_hours_week": "",
    "work_hours_saturday": "",
    "work_hours_sunday": "",
    "address": "Favorit Market, Nərimanov rayonu M.Əlizadə küçəsi 917 - ci məhəllə",
    "name": "Favorit Market, N.Nərimanov",
    "working_days": [],
    "special_days": []
  },
  {
    "city_id": 50,
    "is_open": 1,
    "id": 1263,
    "slug": "elshan-market",
    "is_nfc": 0,
    "cash_in": 0,
    "type": "A",
    "working_weekends": 0,
    "is_digital": 0,
    "lat": "39.96365",
    "lng": "48.84802",
    "work_hours_week": "",
    "work_hours_saturday": "",
    "work_hours_sunday": "",
    "address": "Elşən market, Qaragüney kəndi",
    "name": "Elşən market, Qaragüney kəndi",
    "working_days": [],
    "special_days": []
  },
  {
    "city_id": 1,
    "is_open": 1,
    "id": 1264,
    "slug": "spar-ganclik",
    "is_nfc": 0,
    "cash_in": 0,
    "type": "A",
    "working_weekends": 0,
    "is_digital": 0,
    "lat": "40.39044",
    "lng": "49.84751",
    "work_hours_week": "",
    "work_hours_saturday": "",
    "work_hours_sunday": "",
    "address": "Spar, Nərimanov rayonu, 865 - ci məhəllə, Koroğlu Rəhimov küçəsi 22C",
    "name": "Spar, Gənclik",
    "working_days": [],
    "special_days": []
  },
  {
    "city_id": 1,
    "is_open": 1,
    "id": 1265,
    "slug": "araz-market-shamaxi",
    "is_nfc": 0,
    "cash_in": 0,
    "type": "A",
    "working_weekends": 0,
    "is_digital": 0,
    "lat": "40.40213",
    "lng": "49.87913",
    "work_hours_week": "",
    "work_hours_saturday": "",
    "work_hours_sunday": "",
    "address": "Araz Market, Nəriman Nərimanov rayonu Ə.Əliyev küçəsi 26-cı məhəllə",
    "name": "Araz Market, Şamaxı",
    "working_days": [],
    "special_days": []
  },
  {
    "city_id": 1,
    "is_open": 1,
    "id": 1266,
    "slug": "araz-market-nariman-narimanov",
    "is_nfc": 0,
    "cash_in": 0,
    "type": "A",
    "working_weekends": 0,
    "is_digital": 0,
    "lat": "40.40212",
    "lng": "49.87422",
    "work_hours_week": "",
    "work_hours_saturday": "",
    "work_hours_sunday": "",
    "address": "Araz Market, Nərimanov rayonu 1936-cı məhəllə Ağa Neymətulla",
    "name": "Araz Market, Nəriman Nərimanov",
    "working_days": [],
    "special_days": []
  },